{"name":"Cities","children":[{"name":"Boston","location":{"lat":42.358431,"lng":-71.059773},"yearly":[{"year":"1990","patent":2051},{"year":"1991","patent":2092},{"year":"1992","patent":2310},{"year":"1993","patent":2343},{"year":"1994","patent":2476},{"year":"1995","patent":2318},{"year":"1996","patent":2588},{"year":"1997","patent":2747},{"year":"1998","patent":3688},{"year":"1999","patent":3806},{"year":"2006","creativeOccupationTotal":10145,"creativeOccupationPercentage":0.034068661},{"year":"2007","creativeOccupationTotal":8782,"creativeOccupationPercentage":0.027963077},{"year":"2008","creativeOccupationTotal":9270,"creativeOccupationPercentage":0.02834611},{"year":"2009","creativeOccupationTotal":12108,"creativeOccupationPercentage":0.034824225},{"year":"2010","creativeOccupationTotal":11261,"creativeOccupationPercentage":0.035384132},{"year":"2011","creativeOccupationTotal":9807,"creativeOccupationPercentage":0.030983726},{"year":"2012","creativeOccupationTotal":9833,"creativeOccupationPercentage":0.029612921}],"children":[{"name":"","location":{"lat":20.6462529,"lng":-103.3229039},"children":[{"name":"School","size":0,"children":[]},{"name":"Company","size":0,"children":[]},{"name":"Food","size":7,"children":[]}]},{"name":"0","location":{"lat":22.3221536,"lng":114.1876493},"children":[{"name":"School","size":0,"children":[]},{"name":"Company","size":0,"children":[]},{"name":"Food","size":1,"children":[{"name":"Summer Shack","city":"BOSTON","location":{"lat":42.3594,"lng":-71.0587}}]}]},{"name":"02108","location":{"lat":42.3548561,"lng":-71.0661193},"children":[{"name":"School","size":0,"children":[]},{"name":"Company","size":9,"children":[]},{"name":"Food","size":48,"children":[{"name":"AFC Sushi @ Shaw's #586","city":"Mattapan","location":{"lat":42.271841,"lng":-71.069999}},{"name":"AFC Sushi @ Walgreens #15390","city":"Boston","location":{"lat":42.357327,"lng":-71.058968}},{"name":"Archie's Place","city":"Boston","location":{"lat":42.357884,"lng":-71.058215}},{"name":"BCG@ ORPHEUM THEATRE","city":"Boston","location":{"lat":42.356225,"lng":-71.060994}},{"name":"Beantown Pub","city":"Boston","location":{"lat":42.357232,"lng":-71.060979}},{"name":"Big Guy's Cafe & Grill Inc.","city":"Boston","location":{"lat":42.35952,"lng":-71.05866}},{"name":"BOURBON ST. CAFE","city":"Boston","location":{"lat":42.35583,"lng":-71.0604}},{"name":"BRUEGGER'S BAGEL BAKERY # 274","city":"Boston","location":{"lat":42.357552,"lng":-71.058461}},{"name":"Burger King","city":"BOSTON","location":{"lat":42.3594,"lng":-71.0587}},{"name":"Burger King","city":"Boston","location":{"lat":42.35629,"lng":-71.06185}},{"name":"CAFE ESPLANADE","city":"Boston","location":{"lat":42.355594,"lng":-71.074207}},{"name":"Cafe Hemsin","city":"Boston","location":{"lat":42.357965,"lng":-71.058998}},{"name":"Casserole Cafe","city":"Boston","location":{"lat":42.355889,"lng":-71.060325}},{"name":"Cheeseboy: Grilled Cheese To Go","city":"Boston","location":{"lat":42.3594,"lng":-71.0587}},{"name":"Chipotle Mexican Grille","city":"Boston","location":{"lat":42.357563,"lng":-71.058423}},{"name":"Cocobeet","city":"Boston","location":{"lat":42.359529,"lng":-71.05875}},{"name":"Dunkin Donuts","city":"Boston","location":{"lat":42.356395,"lng":-71.061879}},{"name":"Dunkin Donuts","city":"Boston","location":{"lat":42.35583,"lng":-71.0604}},{"name":"Dunkin' Donuts","city":"Boston","location":{"lat":42.357706,"lng":-71.062899}},{"name":"Dunkin' Donuts","city":"Boston","location":{"lat":42.358127,"lng":-71.058161}},{"name":"Falafel King","city":"Boston","location":{"lat":42.35774,"lng":-71.05784}},{"name":"FILL A BUSTER","city":"Boston","location":{"lat":42.35857,"lng":-71.06258}},{"name":"Finagle A Bagel","city":"BOSTON","location":{"lat":42.3594,"lng":-71.0587}},{"name":"Fresh Mango","city":"Boston","location":{"lat":42.3567,"lng":-71.06045}},{"name":"Fro-zen-yo","city":"Boston","location":{"lat":42.357616,"lng":-71.058386}},{"name":"Mcdonalds","city":"Boston","location":{"lat":42.35705,"lng":-71.059182}},{"name":"Mcdonalds","city":"Boston","location":{"lat":42.35582,"lng":-71.0604}},{"name":"METRO SUBWAY INC.","city":"Boston","location":{"lat":42.35583,"lng":-71.0604}},{"name":"Peet's Coffee & Tea","city":"Boston","location":{"lat":42.356217,"lng":-71.061937}},{"name":"Piperi Restaurant","city":"Boston","location":{"lat":42.35845,"lng":-71.06084}},{"name":"PIZZERIA RICO","city":"BOSTON","location":{"lat":42.3594,"lng":-71.0587}},{"name":"PROVINCE PLACE","city":"Boston","location":{"lat":42.356871,"lng":-71.059919}},{"name":"Rebecca's Cafe Inc.","city":"Boston","location":{"lat":42.35845,"lng":-71.06084}},{"name":"SALSAS MEXICAN GRILL","city":"Boston","location":{"lat":42.35582,"lng":-71.0604}},{"name":"Sarku Japan","city":"Boston","location":{"lat":42.35583,"lng":-71.0604}},{"name":"Shawarma Falafel","city":"Boston","location":{"lat":42.357172,"lng":-71.059651}},{"name":"Sodexo at BNY Mellon-One Boston Taste(15th fl)","city":"Boston","location":{"lat":42.35852,"lng":-71.05837}},{"name":"Starbucks Coffee # 7531","city":"Boston","location":{"lat":42.35557,"lng":-71.06107}},{"name":"Starbucks Coffee # 7535","city":"Boston","location":{"lat":42.3577,"lng":-71.05896}},{"name":"Starbucks Coffee # 801","city":"BOSTON","location":{"lat":42.3594,"lng":-71.0587}},{"name":"Starbucks Coffee # 883","city":"Boston","location":{"lat":42.359381,"lng":-71.059193}},{"name":"Subway","city":"Boston","location":{"lat":42.359529,"lng":-71.05875}},{"name":"Subway","city":"Boston","location":{"lat":42.35774,"lng":-71.05784}},{"name":"SUSHI TIME","city":"Boston","location":{"lat":42.35583,"lng":-71.0604}},{"name":"THAI ACCENT","city":"Boston","location":{"lat":42.35583,"lng":-71.0604}},{"name":"Viga Italian Eatery","city":"Boston","location":{"lat":42.357825,"lng":-71.058248}},{"name":"Walgreens","city":"Boston","location":{"lat":42.357327,"lng":-71.058968}},{"name":"WONGS","city":"Boston","location":{"lat":42.35583,"lng":-71.0604}}]}]},{"name":"02109","location":{"lat":42.36606159999999,"lng":-71.0482911},"children":[{"name":"School","size":0,"children":[]},{"name":"Company","size":2,"children":[]},{"name":"Food","size":73,"children":[{"name":"68 Chinese Fast Food","city":"Boston","location":{"lat":42.355863,"lng":-71.061898}},{"name":"Al Mercatino","city":"BOSTON","location":{"lat":42.3594,"lng":-71.0587}},{"name":"AL'S STATE ST. CAFE","city":"BOSTON","location":{"lat":42.3594,"lng":-71.0587}},{"name":"ANTHONY'S CAFE","city":"Boston","location":{"lat":42.36399,"lng":-71.05137}},{"name":"ARIS BARBEQUE","city":"BOSTON","location":{"lat":42.3594,"lng":-71.0587}},{"name":"Au Bon Pain","city":"Boston","location":{"lat":42.35875,"lng":-71.056199}},{"name":"Au Bon Pain Kiosk (1st Fl.)","city":"Boston","location":{"lat":42.35875,"lng":-71.056199}},{"name":"Bagelville Inc.","city":"Boston","location":{"lat":42.3594,"lng":-71.0587}},{"name":"Bailey & Sage","city":"Boston","location":{"lat":42.35896,"lng":-71.05512}},{"name":"Bangkok Express","city":"Boston","location":{"lat":42.3594,"lng":-71.0587}},{"name":"Banh Mi House","city":"Boston","location":{"lat":42.355863,"lng":-71.061898}},{"name":"Beantown Hoagie","city":"Boston","location":{"lat":42.35806,"lng":-71.055079}},{"name":"Boloco","city":"BOSTON","location":{"lat":42.3594,"lng":-71.0587}},{"name":"Boloco","city":"Boston","location":{"lat":42.35798,"lng":-71.05599}},{"name":"BOSTON & MAINE FISH CO.","city":"Boston","location":{"lat":42.3594,"lng":-71.0587}},{"name":"Boston Chowda Co.","city":"BOSTON","location":{"lat":42.3594,"lng":-71.0587}},{"name":"Boston Pretzel Bakery","city":"Boston","location":{"lat":42.3594,"lng":-71.0587}},{"name":"Cafe Dino","city":"Boston","location":{"lat":42.357262,"lng":-71.054578}},{"name":"CAROL ANN BAKE SHOP","city":"Boston","location":{"lat":42.3594,"lng":-71.0587}},{"name":"Casa Razbora","city":"Boston","location":{"lat":42.35805,"lng":-71.05461}},{"name":"Crush Pizza","city":"Boston","location":{"lat":42.35902,"lng":-71.054927}},{"name":"Dog House","city":"BOSTON","location":{"lat":42.3594,"lng":-71.0587}},{"name":"DUNKIN DONUT","city":"BOSTON","location":{"lat":42.3594,"lng":-71.0587}},{"name":"Dunkin Donuts","city":"BOSTON","location":{"lat":42.3594,"lng":-71.0587}},{"name":"DUNKIN' DONUTS","city":"CHARLESTOWN","location":{"lat":42.3594,"lng":-71.0587}},{"name":"DUNKIN DONUTS'","city":"Boston","location":{"lat":42.360691,"lng":-71.056346}},{"name":"DUNKIN' DONUTS-WATERMARK","city":"Boston","location":{"lat":42.359035,"lng":-71.054823}},{"name":"El Paso Enchiladas","city":"BOSTON","location":{"lat":42.3594,"lng":-71.0587}},{"name":"Emack & Bolio's","city":"Boston","location":{"lat":42.359417,"lng":-71.051129}},{"name":"Falafel King","city":"Boston","location":{"lat":42.355863,"lng":-71.061898}},{"name":"Fisherman's Net","city":"BOSTON","location":{"lat":42.3594,"lng":-71.0587}},{"name":"Flame Cafe","city":"Boston","location":{"lat":42.357262,"lng":-71.054578}},{"name":"Flat Black Coffee Co.  Ltd.","city":"Boston","location":{"lat":42.358,"lng":-71.05376}},{"name":"FLIK INTERNATIONAL","city":"Boston","location":{"lat":42.35927,"lng":-71.05643}},{"name":"GOURMET INDIA","city":"Boston","location":{"lat":42.3594,"lng":-71.0587}},{"name":"Grasshopper Creamery","city":"Boston","location":{"lat":42.360028,"lng":-71.056245}},{"name":"HAYMARKET PIZZA","city":"BOSTON","location":{"lat":42.3594,"lng":-71.0587}},{"name":"Jen Lai Noodle and Rice Co.","city":"BOSTON","location":{"lat":42.3594,"lng":-71.0587}},{"name":"JOEY'S FUN FOODS","city":"Boston","location":{"lat":42.3594,"lng":-71.0587}},{"name":"La Pastaria","city":"BOSTON","location":{"lat":42.3594,"lng":-71.0587}},{"name":"MAX'S DELI CAFE","city":"BOSTON","location":{"lat":42.3594,"lng":-71.0587}},{"name":"MEGUMI OF JAPAN","city":"BOSTON","location":{"lat":42.3594,"lng":-71.0587}},{"name":"Mirabella Pool Concession","city":"Boston","location":{"lat":42.368749,"lng":-71.055051}},{"name":"MMMAC N' CHEESE","city":"BOSTON","location":{"lat":42.3594,"lng":-71.0587}},{"name":"New York Deli","city":"BOSTON","location":{"lat":42.3594,"lng":-71.0587}},{"name":"OLIVER'S ST CAFE","city":"Boston","location":{"lat":42.35693,"lng":-71.05399}},{"name":"Parkside Cafe 2","city":"Boston","location":{"lat":42.356797,"lng":-71.054981}},{"name":"Pavia","city":"Boston","location":{"lat":42.357708,"lng":-71.05628}},{"name":"Philadelphia Steak & Hoagie","city":"Boston","location":{"lat":42.3594,"lng":-71.0587}},{"name":"Piadina Cafe","city":"Boston","location":{"lat":42.35863,"lng":-71.05534}},{"name":"Pita Thyme","city":"Boston","location":{"lat":42.35819,"lng":-71.05486}},{"name":"Prime Shoppe","city":"Boston","location":{"lat":42.3594,"lng":-71.0587}},{"name":"Quincy's Place","city":"Boston","location":{"lat":42.3594,"lng":-71.0587}},{"name":"Red Barn Coffee Roasters (FHSq.)","city":"Boston","location":{"lat":42.360028,"lng":-71.056245}},{"name":"Regina's (up)","city":"BOSTON","location":{"lat":42.3594,"lng":-71.0587}},{"name":"SIP","city":"Boston","location":{"lat":42.356797,"lng":-71.054981}},{"name":"Sprinkle's Ice Cream","city":"Boston","location":{"lat":42.3594,"lng":-71.0587}},{"name":"STARBUCKS COFFEE # 862","city":"BOSTON","location":{"lat":42.3594,"lng":-71.0587}},{"name":"Starbucks Coffee #9463","city":"Boston","location":{"lat":42.359133,"lng":-71.055738}},{"name":"Starbucks Coffee Co. #875","city":"Boston","location":{"lat":42.358088,"lng":-71.057656}},{"name":"STARBUCKS COFFEE KIOSK","city":"Boston","location":{"lat":42.36012,"lng":-71.05091}},{"name":"State Street Express @MBTA State St. Line","city":"Boston","location":{"lat":42.358721,"lng":-71.057477}},{"name":"Steve's Greek Cuisine Inc.","city":"Boston","location":{"lat":42.3594,"lng":-71.0587}},{"name":"Subway","city":"Boston","location":{"lat":42.35772,"lng":-71.05414}},{"name":"SULTAN'S KITCHEN","city":"Boston","location":{"lat":42.359299,"lng":-71.054864}},{"name":"TASTE OF THE TOWN","city":"BOSTON","location":{"lat":42.3594,"lng":-71.0587}},{"name":"Tenoch Mexican","city":"Boston","location":{"lat":42.36328,"lng":-71.05188}},{"name":"The Berry Twist","city":"BOSTON","location":{"lat":42.3594,"lng":-71.0587}},{"name":"The Monkey Bar","city":"Boston","location":{"lat":42.3594,"lng":-71.0587}},{"name":"Ueno Sushi","city":"BOSTON","location":{"lat":42.3594,"lng":-71.0587}},{"name":"WEST END STROLLERS","city":"BOSTON","location":{"lat":42.3594,"lng":-71.0587}},{"name":"Zo","city":"BOSTON","location":{"lat":42.3594,"lng":-71.0587}},{"name":"Zo","city":"Boston","location":{"lat":42.359232,"lng":-71.05532}}]}]},{"name":"02110","location":{"lat":42.3613114,"lng":-71.0482911},"children":[{"name":"School","size":0,"children":[]},{"name":"Company","size":4,"children":[]},{"name":"Food","size":56,"children":[{"name":"AL CAPONE","city":"Boston","location":{"lat":42.35402,"lng":-71.05813}},{"name":"ARCHIE'S NEW YORK DELI","city":"Boston","location":{"lat":42.355042,"lng":-71.059128}},{"name":"Au Bon Pain","city":"BOSTON","location":{"lat":42.3594,"lng":-71.0587}},{"name":"Au Bon Pain Store # 44","city":"BOSTON","location":{"lat":42.3594,"lng":-71.0587}},{"name":"Au Bon Pain Store 511","city":"Boston","location":{"lat":42.350021,"lng":-71.055941}},{"name":"Boloco","city":"Boston","location":{"lat":42.354845,"lng":-71.05391}},{"name":"Boloco","city":"Boston","location":{"lat":42.35426,"lng":-71.0566}},{"name":"Boloco-Atlantic Wharf","city":"Boston","location":{"lat":42.3594,"lng":-71.0587}},{"name":"Boston Common Coffee Co.","city":"Boston","location":{"lat":42.353511,"lng":-71.056728}},{"name":"Boston Kitchen","city":"BOSTON","location":{"lat":42.3594,"lng":-71.0587}},{"name":"Boston News Cafe (90 Arch St.)","city":"Boston","location":{"lat":42.354732,"lng":-71.058368}},{"name":"Bruegger's","city":"Boston","location":{"lat":42.353733,"lng":-71.058509}},{"name":"Chacarero","city":"Boston","location":{"lat":42.355042,"lng":-71.059128}},{"name":"Cosi","city":"Boston","location":{"lat":42.355179,"lng":-71.053595}},{"name":"Cosi (Kiosk)","city":"Boston","location":{"lat":42.355263,"lng":-71.053133}},{"name":"Deli One","city":"BOSTON","location":{"lat":42.3594,"lng":-71.0587}},{"name":"Dunkin Donuts","city":"Boston","location":{"lat":42.35449,"lng":-71.05422}},{"name":"Dunkin Donuts","city":"BOSTON","location":{"lat":42.3594,"lng":-71.0587}},{"name":"Dunkin' Donuts","city":"Boston","location":{"lat":42.356918,"lng":-71.072351}},{"name":"Dunkin Donuts Kiosk","city":"Boston","location":{"lat":42.350021,"lng":-71.055941}},{"name":"DUNKIN DONUTS(FRANKLIN)","city":"Boston","location":{"lat":42.35651,"lng":-71.05332}},{"name":"DUNKIN'DONUTS/WATERMARK","city":"Boston","location":{"lat":42.35362,"lng":-71.05824}},{"name":"Foumami","city":"Boston","location":{"lat":42.3594,"lng":-71.0587}},{"name":"Grass Roots Cafe","city":"Boston","location":{"lat":42.355,"lng":-71.0587}},{"name":"Guckenheimer/Wellington Management(31st Fl)","city":"Boston","location":{"lat":42.3594,"lng":-71.0587}},{"name":"Guru The Caterer","city":"Boston","location":{"lat":42.355943,"lng":-71.057564}},{"name":"Lanta Asian Cuisine","city":"Boston","location":{"lat":42.357589,"lng":-71.053939}},{"name":"MASTER WOK","city":"Boston","location":{"lat":42.351914,"lng":-71.055389}},{"name":"McDonald's","city":"Boston","location":{"lat":42.350021,"lng":-71.055941}},{"name":"MEDITERRANEAN GRILL","city":"Boston","location":{"lat":42.35693,"lng":-71.05306}},{"name":"METRO SUBWAY INC.","city":"Boston","location":{"lat":42.356984,"lng":-71.053548}},{"name":"Nunzio's Pizzeria","city":"Boston","location":{"lat":42.359176,"lng":-71.052618}},{"name":"O! Deli","city":"Boston","location":{"lat":42.35672,"lng":-71.05226}},{"name":"Potbelly Sandwich Shop","city":"Boston","location":{"lat":42.3561,"lng":-71.05695}},{"name":"Pret A Manger (185 Franklin St.)","city":"Boston","location":{"lat":42.3554,"lng":-71.05482}},{"name":"Rebecca's Cafe","city":"Boston","location":{"lat":42.3562,"lng":-71.05804}},{"name":"Samurai Kuang Eatery","city":"Boston","location":{"lat":42.355795,"lng":-71.058451}},{"name":"Scali Deli Cafe","city":"Boston","location":{"lat":42.35457,"lng":-71.053679}},{"name":"Siam Bistro","city":"Boston","location":{"lat":42.35453,"lng":-71.05363}},{"name":"Squeeze Cafe & Juice Bar","city":"Boston","location":{"lat":42.356135,"lng":-71.054068}},{"name":"STARBUCKS COFFEE","city":"Boston","location":{"lat":42.3561,"lng":-71.05695}},{"name":"Starbucks Coffee # 7805","city":"Boston","location":{"lat":42.35635,"lng":-71.051804}},{"name":"Starbucks Coffee # 869","city":"Boston","location":{"lat":42.35492,"lng":-71.05659}},{"name":"Starbucks Coffee #7550","city":"BOSTON","location":{"lat":42.3594,"lng":-71.0587}},{"name":"Starbucks Coffee (Rowes Whart)","city":"Boston","location":{"lat":42.3594,"lng":-71.0587}},{"name":"Starbucks Coffee (South Station)","city":"Boston","location":{"lat":42.350021,"lng":-71.055941}},{"name":"Subway","city":"Boston","location":{"lat":42.355037,"lng":-71.05402}},{"name":"Subway (76 Summer St.)","city":"Boston","location":{"lat":42.35405,"lng":-71.05822}},{"name":"Surf City Squeeze","city":"Boston","location":{"lat":42.350021,"lng":-71.055941}},{"name":"SUSAN'S DELI OF COURSE","city":"Boston","location":{"lat":42.35757,"lng":-71.05385}},{"name":"The Landing","city":"Boston","location":{"lat":42.36014,"lng":-71.050295}},{"name":"Viga","city":"Boston","location":{"lat":42.354147,"lng":-71.057948}},{"name":"Viga (133 Pearl Street)","city":"Boston","location":{"lat":42.35474,"lng":-71.05384}},{"name":"Viga-The Deck @ Digitas Co.","city":"Boston","location":{"lat":42.3562,"lng":-71.05804}},{"name":"WENDY'S OLD FASHIONED HAMBURE","city":"Boston","location":{"lat":42.35412,"lng":-71.05898}},{"name":"WILD GREENS","city":"Boston","location":{"lat":42.35477,"lng":-71.05613}}]}]},{"name":"02111","location":{"lat":42.3514653,"lng":-71.0601767},"children":[{"name":"School","size":1,"children":[{"name":"Quincy Lower (K-5)","building":"Boston HS Bldg","location":{"lat":42.34828548739057,"lng":-71.06419939373927}}]},{"name":"Company","size":0,"children":[]},{"name":"Food","size":57,"children":[{"name":"Al's South St. Express","city":"Boston","location":{"lat":42.352051,"lng":-71.057585}},{"name":"AMC Theatres Boston Common 19","city":"Boston","location":{"lat":42.35315,"lng":-71.06403}},{"name":"AUNTIE ANNE'S (#MA 110)","city":"Boston","location":{"lat":42.3594,"lng":-71.0587}},{"name":"Avana Express Bar","city":"Boston","location":{"lat":42.351624,"lng":-71.061017}},{"name":"Avana Market Place","city":"Boston","location":{"lat":42.351664,"lng":-71.060968}},{"name":"Bean & Leaf Cafe","city":"Boston","location":{"lat":42.358135,"lng":-71.053058}},{"name":"Beijing Kyoto","city":"Boston","location":{"lat":42.351,"lng":-71.05713}},{"name":"BEST BARBECUE KITCHEN","city":"BOSTON","location":{"lat":42.3594,"lng":-71.0587}},{"name":"Boston Common Coffee Co.","city":"Boston","location":{"lat":42.35443,"lng":-71.06218}},{"name":"Boston Opera House","city":"Boston","location":{"lat":42.353999,"lng":-71.06237}},{"name":"CAESAR'S","city":"Boston","location":{"lat":42.352571,"lng":-71.062021}},{"name":"Cafe De Lulu","city":"Boston","location":{"lat":42.351661,"lng":-71.060969}},{"name":"Cheeseboy \"Grilled Cheese To Go\"","city":"Boston","location":{"lat":42.352031,"lng":-71.055038}},{"name":"Chopped & Topped 3rd Fl.","city":"Boston","location":{"lat":42.349591,"lng":-71.063586}},{"name":"Coffee Corner","city":"BOSTON","location":{"lat":42.3594,"lng":-71.0587}},{"name":"Corporate Chefs @ Soups On","city":"Boston","location":{"lat":42.35072,"lng":-71.06272}},{"name":"Cosi South Station","city":"Boston","location":{"lat":42.352031,"lng":-71.055038}},{"name":"D'ANGELO'S","city":"Boston","location":{"lat":42.3594,"lng":-71.0587}},{"name":"DING HO FAST FOOD","city":"Boston","location":{"lat":42.35073,"lng":-71.061239}},{"name":"Double Tree Club Hotel/Starbucks","city":"Boston","location":{"lat":42.3594,"lng":-71.0587}},{"name":"Dumpling King","city":"Boston","location":{"lat":42.351624,"lng":-71.061017}},{"name":"Dunkin Donuts","city":"Boston","location":{"lat":42.35116,"lng":-71.05667}},{"name":"Dunkin Donuts","city":"Boston","location":{"lat":42.350078,"lng":-71.063059}},{"name":"DUNKIN' DONUTS/WATERMARK","city":"Boston","location":{"lat":42.3547,"lng":-71.06024}},{"name":"DUNKIN/DONUT/WATERMARK","city":"Boston","location":{"lat":42.352216,"lng":-71.062379}},{"name":"FIGARO'S BOSTON DELICATESSEN","city":"Boston","location":{"lat":42.35071,"lng":-71.05826}},{"name":"Fresh Life Cafe @ Tuft's Medical Ctr.","city":"Boston","location":{"lat":42.350078,"lng":-71.063059}},{"name":"Gourmet Eatery","city":"Boston","location":{"lat":42.349248,"lng":-71.061208}},{"name":"GREAT BARBECU INC.","city":"Boston","location":{"lat":42.35074,"lng":-71.06023}},{"name":"HARRISON CAFE","city":"Boston","location":{"lat":42.349154,"lng":-71.062307}},{"name":"HERRERA'S MEXICAN GRILL  INC.","city":"Boston","location":{"lat":42.355262,"lng":-71.062458}},{"name":"Honey Dew Donuts","city":"Boston","location":{"lat":42.3594,"lng":-71.0587}},{"name":"In Boston","city":"Boston","location":{"lat":42.353107,"lng":-71.05868}},{"name":"Kingston Station","city":"Boston","location":{"lat":42.353772,"lng":-71.059213}},{"name":"Mcdonalds","city":"Boston","location":{"lat":42.3594,"lng":-71.0587}},{"name":"McDonald's","city":"Boston","location":{"lat":42.351037,"lng":-71.06269}},{"name":"McDonald's (146 Tremont St.)","city":"Boston","location":{"lat":42.355186,"lng":-71.062967}},{"name":"Momogoose (Kiosk)","city":"Boston","location":{"lat":42.35192,"lng":-71.05795}},{"name":"New Dong Khanh Restaurant","city":"Boston","location":{"lat":42.35093,"lng":-71.06158}},{"name":"NEW HOUSE OF TOY","city":"Boston","location":{"lat":42.350621,"lng":-71.059903}},{"name":"NEW SAIGON SANDWICH INC.","city":"Boston","location":{"lat":42.351119,"lng":-71.062679}},{"name":"Pinkberry","city":"Boston","location":{"lat":42.3594,"lng":-71.0587}},{"name":"Pita Kabob","city":"Boston","location":{"lat":42.353254,"lng":-71.061258}},{"name":"PIZZERIA REGINA OF SO. STATION","city":"Boston","location":{"lat":42.352031,"lng":-71.055038}},{"name":"RAA EATERY","city":"Boston","location":{"lat":42.353033,"lng":-71.057556}},{"name":"Sal's Pizza/Bakery","city":"Boston","location":{"lat":42.354798,"lng":-71.063101}},{"name":"Sodexo Operations @ State Street","city":"BOSTON","location":{"lat":42.3594,"lng":-71.0587}},{"name":"Starbucks Coffee # 10599","city":"Boston","location":{"lat":42.353033,"lng":-71.057556}},{"name":"Starbucks Coffee Co.","city":"Boston","location":{"lat":42.352467,"lng":-71.056269}},{"name":"Subway","city":"Boston","location":{"lat":42.355314,"lng":-71.062825}},{"name":"SUISHAYA RESTAURANT","city":"Boston","location":{"lat":42.35121,"lng":-71.06037}},{"name":"SUSAN'S DELI OF COURSE","city":"BOSTON","location":{"lat":42.3594,"lng":-71.0587}},{"name":"Temple Place Cafe","city":"Boston","location":{"lat":42.355396,"lng":-71.062051}},{"name":"The Juice Bar","city":"Boston","location":{"lat":42.351661,"lng":-71.060969}},{"name":"Trattoria Andiamo","city":"Boston","location":{"lat":42.35107,"lng":-71.057119}},{"name":"Wild Cherry","city":"Boston","location":{"lat":42.351365,"lng":-71.062281}},{"name":"Wing's Kitchen","city":"Boston","location":{"lat":42.35052,"lng":-71.06031}}]}]},{"name":"02113","location":{"lat":42.3654231,"lng":-71.05497679999999},"children":[{"name":"School","size":1,"children":[{"name":"Eliot K-8","building":"Eliot Bldg","location":{"lat":42.36618199577367,"lng":-71.0532456514224}}]},{"name":"Company","size":0,"children":[]},{"name":"Food","size":17,"children":[{"name":"BOSTON BEANSTOCK COFFEE CO.","city":"Boston","location":{"lat":42.363853,"lng":-71.055523}},{"name":"Bread & Butter","city":"Boston","location":{"lat":42.362948,"lng":-71.055959}},{"name":"Caffe Lil Italy","city":"Boston","location":{"lat":42.36652,"lng":-71.05478}},{"name":"CHINA HOUSE","city":"Boston","location":{"lat":42.3642,"lng":-71.05382}},{"name":"Cobblestones","city":"Boston","location":{"lat":42.362972,"lng":-71.055089}},{"name":"Dip It Sweet","city":"Boston","location":{"lat":42.364175,"lng":-71.057435}},{"name":"GALLERIA UMBERTO","city":"Boston","location":{"lat":42.36372,"lng":-71.05425}},{"name":"Gelateria","city":"Boston","location":{"lat":42.36382,"lng":-71.05468}},{"name":"Gigi Gelateria","city":"Boston","location":{"lat":42.362948,"lng":-71.055959}},{"name":"MANGIA MANGIA","city":"Boston","location":{"lat":42.365007,"lng":-71.057242}},{"name":"MIKE'S PASTRY INC.","city":"Boston","location":{"lat":42.36424,"lng":-71.05427}},{"name":"MY COUSIN'S PLACE","city":"Boston","location":{"lat":42.36602,"lng":-71.05296}},{"name":"Pasta & Pomodoro","city":"Boston","location":{"lat":42.36483,"lng":-71.0557}},{"name":"Paulies","city":"Boston","location":{"lat":42.36327,"lng":-71.0559}},{"name":"Pinkberry","city":"Boston","location":{"lat":42.36363,"lng":-71.05441}},{"name":"QUATTRO RISTORANTE  GRILL & PIZZERIA","city":"Boston","location":{"lat":42.363585,"lng":-71.054861}},{"name":"VOLLE NOLLE","city":"Boston","location":{"lat":42.36455,"lng":-71.05348}}]}]},{"name":"02114","location":{"lat":42.3652917,"lng":-71.0646337},"children":[{"name":"School","size":0,"children":[]},{"name":"Company","size":0,"children":[]},{"name":"Food","size":87,"children":[{"name":"Au Bon Pain","city":"Boston","location":{"lat":42.36384,"lng":-71.06166}},{"name":"Au Bon Pain (Cambridge St.)","city":"Boston","location":{"lat":42.3594,"lng":-71.0587}},{"name":"CAFE PODIMA","city":"Boston","location":{"lat":42.360947,"lng":-71.064886}},{"name":"CAUSEWAY CAFE","city":"Boston","location":{"lat":42.36611,"lng":-71.05943}},{"name":"CUPPACOFFEE","city":"Boston","location":{"lat":42.3594,"lng":-71.0587}},{"name":"Derne Street Deli","city":"Boston","location":{"lat":42.35953,"lng":-71.06344}},{"name":"Domino's Pizza","city":"Boston","location":{"lat":42.3594,"lng":-71.0587}},{"name":"Dunkin Donuts","city":"Boston","location":{"lat":42.360584,"lng":-71.062109}},{"name":"Dunkin' Donuts","city":"BOSTON","location":{"lat":42.3594,"lng":-71.0587}},{"name":"Dunkin Donuts (Canal St.)","city":"Boston","location":{"lat":42.365016,"lng":-71.061179}},{"name":"Dunkin Donuts (Causeway St.)","city":"Boston","location":{"lat":42.36431,"lng":-71.06294}},{"name":"Dunkin Donuts North Station","city":"Boston","location":{"lat":42.3594,"lng":-71.0587}},{"name":"DUNKIN DONUTS/BEE FINE FOODS","city":"BOSTON","location":{"lat":42.3594,"lng":-71.0587}},{"name":"DUNKIN DONUTS/FIRST DONUTS INC","city":"BOSTON","location":{"lat":42.3594,"lng":-71.0587}},{"name":"DUNKIN DONUTS/PLAZA ENT","city":"BOSTON","location":{"lat":42.3594,"lng":-71.0587}},{"name":"Emack & Bolio","city":"Boston","location":{"lat":42.3594,"lng":-71.0587}},{"name":"Equal Exchange","city":"Boston","location":{"lat":42.36664,"lng":-71.05943}},{"name":"Finagle A Bagel","city":"Boston","location":{"lat":42.361357,"lng":-71.068227}},{"name":"FLOUR BAKERY & CAFE","city":"Roxbury","location":{"lat":42.338323,"lng":-71.07488}},{"name":"GRIDDLER'S BURGERS & DOGS","city":"Boston","location":{"lat":42.36096,"lng":-71.06586}},{"name":"HALF TIME","city":"Boston","location":{"lat":42.365054,"lng":-71.061409}},{"name":"Isabelle's Curly Cakes","city":"Boston","location":{"lat":42.35843,"lng":-71.07045}},{"name":"J P Licks @ Charles Street","city":"Boston","location":{"lat":42.35998,"lng":-71.071}},{"name":"Landmark Pizza @ North Station","city":"Boston","location":{"lat":42.368114,"lng":-71.062947}},{"name":"Mass General Hospital/Blossom Cafe","city":"Boston","location":{"lat":42.3594,"lng":-71.0587}},{"name":"Mass General Hospital/Coffee Central","city":"Boston","location":{"lat":42.3594,"lng":-71.0587}},{"name":"Massachusetts Eye & Ear Infirmary (Cart)","city":"Boston","location":{"lat":42.362781,"lng":-71.070319}},{"name":"McDonald's","city":"BOSTON","location":{"lat":42.3594,"lng":-71.0587}},{"name":"METRO SUBWAY INC.","city":"Boston","location":{"lat":42.36471,"lng":-71.06196}},{"name":"Mulligans","city":"Boston","location":{"lat":42.364307,"lng":-71.059631}},{"name":"Nino's Pizza","city":"Boston","location":{"lat":42.35838,"lng":-71.07042}},{"name":"PAPA'S ROAST BEEF AND PIZZA","city":"Boston","location":{"lat":42.36431,"lng":-71.06294}},{"name":"Qdoba Mexican Grill #2592","city":"Boston","location":{"lat":42.36486,"lng":-71.06185}},{"name":"STARBUCKS COFFEE # 864","city":"Boston","location":{"lat":42.35889,"lng":-71.07056}},{"name":"STARBUCKS COFFEE CO.","city":"Boston","location":{"lat":42.360985,"lng":-71.066481}},{"name":"Subway (138 Cambridge St.)","city":"Boston","location":{"lat":42.361003,"lng":-71.063928}},{"name":"T D Garden Campione Pizza 406","city":"Boston","location":{"lat":42.3594,"lng":-71.0587}},{"name":"T D Garden Campione Pizza 415","city":"Boston","location":{"lat":42.3594,"lng":-71.0587}},{"name":"T D Garden Campione Pizza 727","city":"Boston","location":{"lat":42.3594,"lng":-71.0587}},{"name":"T D Garden Campione Pizza 731","city":"Boston","location":{"lat":42.3594,"lng":-71.0587}},{"name":"T D Garden Carvery 456","city":"Boston","location":{"lat":42.3594,"lng":-71.0587}},{"name":"T D Garden Chicken and Brew 405","city":"Boston","location":{"lat":42.3594,"lng":-71.0587}},{"name":"T D Garden Chicken and Brew 413","city":"Boston","location":{"lat":42.3594,"lng":-71.0587}},{"name":"T D Garden Chipper(Boston Pops 205)","city":"Boston","location":{"lat":42.3594,"lng":-71.0587}},{"name":"T D Garden Frank House 301","city":"Boston","location":{"lat":42.3594,"lng":-71.0587}},{"name":"T D Garden Frank House 403","city":"Boston","location":{"lat":42.3594,"lng":-71.0587}},{"name":"T D Garden Frank House 409","city":"Boston","location":{"lat":42.3594,"lng":-71.0587}},{"name":"T D Garden Frank House 411","city":"Boston","location":{"lat":42.3594,"lng":-71.0587}},{"name":"T D Garden Frank House 417","city":"Boston","location":{"lat":42.3594,"lng":-71.0587}},{"name":"T D Garden Frank House 518","city":"Boston","location":{"lat":42.3594,"lng":-71.0587}},{"name":"T D Garden Frank House 711","city":"Boston","location":{"lat":42.3594,"lng":-71.0587}},{"name":"T D Garden Frank House 722","city":"Boston","location":{"lat":42.3594,"lng":-71.0587}},{"name":"T D Garden Frank House 726","city":"Boston","location":{"lat":42.3594,"lng":-71.0587}},{"name":"T D Garden Frank House 728","city":"Boston","location":{"lat":42.3594,"lng":-71.0587}},{"name":"T D Garden Frank House 730","city":"Boston","location":{"lat":42.3594,"lng":-71.0587}},{"name":"T D Garden Frank House 732","city":"Boston","location":{"lat":42.3594,"lng":-71.0587}},{"name":"T D Garden Frank House 736","city":"Boston","location":{"lat":42.3594,"lng":-71.0587}},{"name":"T D Garden Frank House 737","city":"Boston","location":{"lat":42.3594,"lng":-71.0587}},{"name":"T D Garden Gelato 422","city":"Boston","location":{"lat":42.3594,"lng":-71.0587}},{"name":"T D Garden Hub Bar 201","city":"Boston","location":{"lat":42.3594,"lng":-71.0587}},{"name":"T D Garden Hungry for Hockey 777","city":"Boston","location":{"lat":42.3594,"lng":-71.0587}},{"name":"T D Garden Links Grill 407","city":"Boston","location":{"lat":42.3594,"lng":-71.0587}},{"name":"T D Garden Links Grill 416","city":"Boston","location":{"lat":42.3594,"lng":-71.0587}},{"name":"T D Garden Links Grill 521","city":"Boston","location":{"lat":42.3594,"lng":-71.0587}},{"name":"T D Garden Links Grill 724","city":"Boston","location":{"lat":42.3594,"lng":-71.0587}},{"name":"T D Garden Links Grill 729","city":"Boston","location":{"lat":42.3594,"lng":-71.0587}},{"name":"T D Garden Links Grill 734","city":"Boston","location":{"lat":42.3594,"lng":-71.0587}},{"name":"T D Garden On Tap 402","city":"Boston","location":{"lat":42.3594,"lng":-71.0587}},{"name":"T D Garden On Tap 410","city":"Boston","location":{"lat":42.3594,"lng":-71.0587}},{"name":"T D Garden Pile High 408","city":"Boston","location":{"lat":42.3594,"lng":-71.0587}},{"name":"T D Garden Pile High 725","city":"Boston","location":{"lat":42.3594,"lng":-71.0587}},{"name":"T D Garden Shots 404","city":"Boston","location":{"lat":42.3594,"lng":-71.0587}},{"name":"T D Garden Shots 412","city":"Boston","location":{"lat":42.3594,"lng":-71.0587}},{"name":"T D Garden Shots 521B #203","city":"Boston","location":{"lat":42.3594,"lng":-71.0587}},{"name":"T D Garden Shots 723","city":"Boston","location":{"lat":42.3594,"lng":-71.0587}},{"name":"T D Garden Shots 735","city":"Boston","location":{"lat":42.3594,"lng":-71.0587}},{"name":"T D Garden Sweet Spot 414","city":"Boston","location":{"lat":42.3594,"lng":-71.0587}},{"name":"T D Garden Sweet Spot 733","city":"Boston","location":{"lat":42.3594,"lng":-71.0587}},{"name":"T D Garden The Premium Market","city":"Boston","location":{"lat":42.3594,"lng":-71.0587}},{"name":"THE CAFE ON NEW CHARDON ST.","city":"Boston","location":{"lat":42.36211,"lng":-71.06174}},{"name":"The Upper Crust","city":"Boston","location":{"lat":42.35664,"lng":-71.06994}},{"name":"UPTOWN CAFE","city":"BOSTON","location":{"lat":42.3594,"lng":-71.0587}},{"name":"VANILLE-BAKERY & PASTRY","city":"Boston","location":{"lat":42.35788,"lng":-71.0706}},{"name":"Viva Burrito","city":"Boston","location":{"lat":42.362733,"lng":-71.06423}},{"name":"What's Your Beef #744","city":"Boston/West End","location":{"lat":42.3594,"lng":-71.0587}},{"name":"WHOLE FOODS MARKET(Cambridge St.)","city":"Boston","location":{"lat":42.362108,"lng":-71.065981}},{"name":"YAWKEY CENTER \"COFFEE SOUTH\"","city":"Boston","location":{"lat":42.362202,"lng":-71.068988}}]}]},{"name":"02115","location":{"lat":42.339904,"lng":-71.0898892},"children":[{"name":"School","size":3,"children":[{"name":"Boston Latin School","building":"Boston Latin School Bldg","location":{"lat":42.33816811456097,"lng":-71.10240259354396}},{"name":"Kennedy Health Careers Acad","building":"Health Careers Academy","location":{"lat":42.3438499996779,"lng":-71.08983000035408}},{"name":"Kennedy Health Careers Academy","building":"Farragut Building","location":{"lat":42.3438499996779,"lng":-71.08983000035408}}]},{"name":"Company","size":0,"children":[]},{"name":"Food","size":116,"children":[{"name":"Au Bon Pain","city":"Boston","location":{"lat":42.337388,"lng":-71.106281}},{"name":"Au Bon Pain","city":"Boston","location":{"lat":42.336106,"lng":-71.10748}},{"name":"BANGKOK CITY RESTAURANT","city":"BOSTON","location":{"lat":42.3594,"lng":-71.0587}},{"name":"Blue Cross Blue Shield-Landmark Center","city":"Boston","location":{"lat":42.344534,"lng":-71.102755}},{"name":"BO9/CO9/Y7","city":"Boston","location":{"lat":42.346723,"lng":-71.09868}},{"name":"Boloco","city":"BOSTON","location":{"lat":42.3594,"lng":-71.0587}},{"name":"Boloco","city":"BOSTON","location":{"lat":42.3594,"lng":-71.0587}},{"name":"BOSTON MARKET","city":"BOSTON","location":{"lat":42.3594,"lng":-71.0587}},{"name":"Boston Symphony Orchestra","city":"BOSTON","location":{"lat":42.3594,"lng":-71.0587}},{"name":"Brigham & Women Hospital","city":"Boston","location":{"lat":42.336106,"lng":-71.10748}},{"name":"Brigham & Womens Coffee Cart@45 Francis","city":"Boston","location":{"lat":42.336106,"lng":-71.10748}},{"name":"BRIGHAM CIRCLE CHINESE FOOD","city":"BOSTON","location":{"lat":42.3594,"lng":-71.0587}},{"name":"BV","city":"Boston","location":{"lat":42.346723,"lng":-71.09868}},{"name":"C10/B10","city":"BOSTON","location":{"lat":42.3594,"lng":-71.0587}},{"name":"C11","city":"BOSTON","location":{"lat":42.3594,"lng":-71.0587}},{"name":"C12/B12","city":"BOSTON","location":{"lat":42.3594,"lng":-71.0587}},{"name":"C13/B13","city":"BOSTON","location":{"lat":42.3594,"lng":-71.0587}},{"name":"C15/B15","city":"BOSTON","location":{"lat":42.3594,"lng":-71.0587}},{"name":"C16/B16","city":"BOSTON","location":{"lat":42.3594,"lng":-71.0587}},{"name":"C17/B17","city":"BOSTON","location":{"lat":42.3594,"lng":-71.0587}},{"name":"Cafe 939","city":"Boston","location":{"lat":42.348238,"lng":-71.08505}},{"name":"CAPPY'S PIZZA & SUBS","city":"BOSTON","location":{"lat":42.3594,"lng":-71.0587}},{"name":"CAPPY'S SUB NO. 2","city":"BOSTON","location":{"lat":42.3594,"lng":-71.0587}},{"name":"CHICKEN LOU'S","city":"Boston","location":{"lat":42.33924,"lng":-71.090258}},{"name":"Citra A Fresh Cafe","city":"Boston","location":{"lat":42.33724,"lng":-71.10217}},{"name":"CO1/BO1/Dir","city":"Boston","location":{"lat":42.346723,"lng":-71.09868}},{"name":"CO3/BO3/YO3","city":"BOSTON","location":{"lat":42.3594,"lng":-71.0587}},{"name":"CO5/BO5/YO5","city":"BOSTON","location":{"lat":42.3594,"lng":-71.0587}},{"name":"CO6/BO6","city":"BOSTON","location":{"lat":42.3594,"lng":-71.0587}},{"name":"CO7","city":"BOSTON","location":{"lat":42.3594,"lng":-71.0587}},{"name":"Concession 1","city":"Boston","location":{"lat":42.346723,"lng":-71.09868}},{"name":"D'ANGELO SANDWICH SHOP","city":"BOSTON","location":{"lat":42.3594,"lng":-71.0587}},{"name":"DD1/B14","city":"BOSTON","location":{"lat":42.3594,"lng":-71.0587}},{"name":"DD2","city":"BOSTON","location":{"lat":42.3594,"lng":-71.0587}},{"name":"Discovery Cafe","city":"Boston","location":{"lat":42.33901,"lng":-71.104249}},{"name":"Dragon Bowl","city":"Boston","location":{"lat":42.33829,"lng":-71.10695}},{"name":"Dugout Inseat","city":"Boston","location":{"lat":42.346723,"lng":-71.09868}},{"name":"Dunkin Donuts","city":"Boston","location":{"lat":42.346437,"lng":-71.087599}},{"name":"Dunkin' Donuts","city":"BOSTON","location":{"lat":42.3594,"lng":-71.0587}},{"name":"DUNKIN DONUTS'","city":"Boston","location":{"lat":42.348738,"lng":-71.086508}},{"name":"DUNKIN DONUTS/GALLERIA","city":"Boston","location":{"lat":42.338284,"lng":-71.106989}},{"name":"El Pelon Taqueria","city":"Boston","location":{"lat":42.343077,"lng":-71.09911}},{"name":"Emack & Bolio","city":"Boston","location":{"lat":42.3594,"lng":-71.0587}},{"name":"Emack & Bolio's","city":"Boston","location":{"lat":42.34882,"lng":-71.08456}},{"name":"EMC Inseat","city":"BOSTON","location":{"lat":42.3594,"lng":-71.0587}},{"name":"Five Guys Burgers & Fries","city":"Boston","location":{"lat":42.342036,"lng":-71.086429}},{"name":"Flik International @ Merck & Co.","city":"Boston","location":{"lat":42.339769,"lng":-71.103259}},{"name":"GEB - 2","city":"BOSTON","location":{"lat":42.3594,"lng":-71.0587}},{"name":"GEC/GEB","city":"BOSTON","location":{"lat":42.3594,"lng":-71.0587}},{"name":"GM1","city":"BOSTON","location":{"lat":42.3594,"lng":-71.0587}},{"name":"Green T Coffee Shop","city":"Mission Hill","location":{"lat":42.333487,"lng":-71.105724}},{"name":"Gyro City","city":"Boston","location":{"lat":42.343077,"lng":-71.09911}},{"name":"Halal Indian Cuisine","city":"Boston","location":{"lat":42.333841,"lng":-71.105038}},{"name":"INDIA SAMRAAT","city":"BOSTON","location":{"lat":42.3594,"lng":-71.0587}},{"name":"Jamba Juice","city":"Boston","location":{"lat":42.34936,"lng":-71.10402}},{"name":"Java City @ Simmons College","city":"Boston","location":{"lat":42.33931,"lng":-71.09996}},{"name":"JORDAN'S BAR","city":"Boston","location":{"lat":42.346723,"lng":-71.09868}},{"name":"Kung Fu Tea @ Mass. Ave.","city":"Boston","location":{"lat":42.34261,"lng":-71.084169}},{"name":"KWIK-E","city":"BOSTON","location":{"lat":42.3594,"lng":-71.0587}},{"name":"L5B1","city":"BOSTON","location":{"lat":42.3594,"lng":-71.0587}},{"name":"L5B3","city":"BOSTON","location":{"lat":42.3594,"lng":-71.0587}},{"name":"L5C1","city":"BOSTON","location":{"lat":42.3594,"lng":-71.0587}},{"name":"L5C3","city":"BOSTON","location":{"lat":42.3594,"lng":-71.0587}},{"name":"LB1","city":"BOSTON","location":{"lat":42.3594,"lng":-71.0587}},{"name":"LBG","city":"BOSTON","location":{"lat":42.3594,"lng":-71.0587}},{"name":"LC1/Pizza/LB2","city":"BOSTON","location":{"lat":42.3594,"lng":-71.0587}},{"name":"LC2/LY1","city":"Boston","location":{"lat":42.346723,"lng":-71.09868}},{"name":"LC4A","city":"BOSTON","location":{"lat":42.3594,"lng":-71.0587}},{"name":"Left Field Inseat","city":"Boston","location":{"lat":42.346723,"lng":-71.09868}},{"name":"Left Field Pantry","city":"Boston","location":{"lat":42.346723,"lng":-71.09868}},{"name":"LFV","city":"Boston","location":{"lat":42.346723,"lng":-71.09868}},{"name":"Little Steve's Pizza","city":"Boston","location":{"lat":42.34677,"lng":-71.088759}},{"name":"LY4/LB4/LS4","city":"Boston","location":{"lat":42.346723,"lng":-71.09868}},{"name":"Mama's Place","city":"Mission Hill","location":{"lat":42.33331,"lng":-71.10601}},{"name":"Massachusetts Eye & Ear@ Longwood","city":"Boston","location":{"lat":42.333002,"lng":-71.107495}},{"name":"McDonald's","city":"Boston","location":{"lat":42.338284,"lng":-71.106989}},{"name":"Men Tei","city":"Boston","location":{"lat":42.34846,"lng":-71.08534}},{"name":"MOBIDICK","city":"Boston","location":{"lat":42.342178,"lng":-71.08624}},{"name":"Montecristo Mexican Grill","city":"Boston","location":{"lat":42.33363,"lng":-71.10549}},{"name":"NAN LING","city":"BOSTON","location":{"lat":42.3594,"lng":-71.0587}},{"name":"Northeastern Univ Ell Ctn","city":"BOSTON","location":{"lat":42.3594,"lng":-71.0587}},{"name":"PAV1A","city":"BOSTON","location":{"lat":42.3594,"lng":-71.0587}},{"name":"PAVB1","city":"BOSTON","location":{"lat":42.3594,"lng":-71.0587}},{"name":"PAVB3","city":"BOSTON","location":{"lat":42.3594,"lng":-71.0587}},{"name":"PAVC1","city":"BOSTON","location":{"lat":42.3594,"lng":-71.0587}},{"name":"PAVC3","city":"BOSTON","location":{"lat":42.3594,"lng":-71.0587}},{"name":"Peet's Coffee Shop","city":"Boston","location":{"lat":42.336736,"lng":-71.099529}},{"name":"Pinkberry","city":"Boston","location":{"lat":42.34884,"lng":-71.08449}},{"name":"Pizza 10","city":"BOSTON","location":{"lat":42.3594,"lng":-71.0587}},{"name":"PO6/BO7/PBD","city":"BOSTON","location":{"lat":42.3594,"lng":-71.0587}},{"name":"Qdoba Mexican Grill #2207","city":"Boston","location":{"lat":42.339776,"lng":-71.090882}},{"name":"RFV","city":"Boston","location":{"lat":42.346723,"lng":-71.09868}},{"name":"Right Field Inseat","city":"Boston","location":{"lat":42.346723,"lng":-71.09868}},{"name":"Right Field Pantry","city":"Boston","location":{"lat":42.346723,"lng":-71.09868}},{"name":"Rod Dee 2 Thai Cuisine","city":"Boston","location":{"lat":42.34302,"lng":-71.099229}},{"name":"Sepal","city":"BOSTON","location":{"lat":42.3594,"lng":-71.0587}},{"name":"Simmons College-Meyers Cafe","city":"Boston","location":{"lat":42.3594,"lng":-71.0587}},{"name":"SIMMONS COLLEGE-QUADSINE","city":"BOSTON","location":{"lat":42.3594,"lng":-71.0587}},{"name":"Smoothie King","city":"Boston","location":{"lat":42.348617,"lng":-71.085334}},{"name":"SPIKE'S JUNKYARD DOGS","city":"Boston","location":{"lat":42.346932,"lng":-71.08797}},{"name":"Starbucks","city":"BOSTON","location":{"lat":42.3594,"lng":-71.0587}},{"name":"Starbucks Coffee","city":"Boston","location":{"lat":42.342124,"lng":-71.086311}},{"name":"Starbucks Coffee # 7224","city":"BOSTON","location":{"lat":42.3594,"lng":-71.0587}},{"name":"Starbucks Coffee # 7234","city":"Boston","location":{"lat":42.34669,"lng":-71.0877}},{"name":"Starbucks Coffee # 7804","city":"BOSTON","location":{"lat":42.3594,"lng":-71.0587}},{"name":"Starbucks Coffee Co. #872","city":"Boston","location":{"lat":42.34811,"lng":-71.08715}},{"name":"Subway","city":"Boston","location":{"lat":42.338284,"lng":-71.106989}},{"name":"Subway","city":"BOSTON","location":{"lat":42.3594,"lng":-71.0587}},{"name":"Subway","city":"Boston","location":{"lat":42.34936,"lng":-71.10402}},{"name":"Subway (334 Mass. Ave.)","city":"Boston","location":{"lat":42.34261,"lng":-71.084169}},{"name":"Sweet Cupcakes  Inc.","city":"Boston","location":{"lat":42.3594,"lng":-71.0587}},{"name":"Tsushi Inc.","city":"Boston","location":{"lat":42.338284,"lng":-71.106989}},{"name":"VHP","city":"Boston","location":{"lat":42.346723,"lng":-71.09868}},{"name":"WENTWORTH BEATTY HALL","city":"BOSTON","location":{"lat":42.3594,"lng":-71.0587}},{"name":"WHOLE FOODS MARKET","city":"Boston","location":{"lat":42.343689,"lng":-71.086548}},{"name":"Y06","city":"Boston","location":{"lat":42.346723,"lng":-71.09868}}]}]},{"name":"02116","location":{"lat":42.353068,"lng":-71.0765188},"children":[{"name":"School","size":4,"children":[{"name":"Quincy Upper School","building":"Abraham Lincoln Building","location":{"lat":42.34854790278255,"lng":-71.06923626165974}},{"name":"Snowden International","building":"Snowden Hs Bldg","location":{"lat":42.35074063653059,"lng":-71.0780399597702}},{"name":"McKinley Elementary","building":"Mckinley Mackey Bldg","location":{"lat":42.344499341647236,"lng":-71.07359730894547}},{"name":"McKinley So. End Acad","building":"Mckinley Mackey Bldg","location":{"lat":42.344499341647236,"lng":-71.07359730894547}}]},{"name":"Company","size":3,"children":[]},{"name":"Food","size":74,"children":[{"name":"A K's Take Out & Delivery@Reggie Lewis Track","city":"Boston","location":{"lat":42.3594,"lng":-71.0587}},{"name":"Appleton Bakery & Cafe","city":"Boston","location":{"lat":42.345259,"lng":-71.074714}},{"name":"Au Bon Pain","city":"Boston","location":{"lat":42.35161,"lng":-71.07284}},{"name":"Back Bay Sandwich","city":"Boston","location":{"lat":42.35091,"lng":-71.07152}},{"name":"Ben & Jerry's","city":"Boston","location":{"lat":42.35031,"lng":-71.079}},{"name":"Ben and Jerry's","city":"","location":{"lat":42.351454,"lng":-71.06876}},{"name":"BERKELEY PERK CAFE","city":"Boston","location":{"lat":42.34678,"lng":-71.07061}},{"name":"Billy's Sub Shop","city":"Boston","location":{"lat":42.34659,"lng":-71.07051}},{"name":"Boloco","city":"Boston","location":{"lat":42.35064,"lng":-71.07645}},{"name":"Boloco (247 Newbury St.)","city":"Boston","location":{"lat":42.34978,"lng":-71.08272}},{"name":"Boloco Inspired Burritos","city":"Boston","location":{"lat":42.352269,"lng":-71.067108}},{"name":"BOSTON MARRIOTT/STARBUCKS","city":"BOSTON","location":{"lat":42.3594,"lng":-71.0587}},{"name":"Burger King","city":"Boston","location":{"lat":42.350729,"lng":-71.076088}},{"name":"CAFE JAFFA","city":"BOSTON","location":{"lat":42.3594,"lng":-71.0587}},{"name":"CALIFORNIA PIZZA  KITCHEN","city":"Boston","location":{"lat":42.351379,"lng":-71.066128}},{"name":"Capital One Boylston Cafe","city":"Boston","location":{"lat":42.349217,"lng":-71.081684}},{"name":"CHARLIE'S SANDWICH SHOPPE","city":"Boston","location":{"lat":42.344123,"lng":-71.077771}},{"name":"Choice's by Au Bon Pain","city":"BOSTON","location":{"lat":42.3594,"lng":-71.0587}},{"name":"Corporate Chefs @ Plaza Cafe (Tufts)","city":"Boston","location":{"lat":42.34992,"lng":-71.06497}},{"name":"Crazy Dough's Pizza","city":"Boston","location":{"lat":42.351362,"lng":-71.06874}},{"name":"D'ANGELO'S SANDWICH SHOP","city":"Boston","location":{"lat":42.351362,"lng":-71.06874}},{"name":"Dirty Water Dough Company","city":"Boston","location":{"lat":42.34975,"lng":-71.08108}},{"name":"Dunkin Donuts","city":"Boston","location":{"lat":42.34965,"lng":-71.08001}},{"name":"Dunkin' Donuts","city":"Boston","location":{"lat":42.34841,"lng":-71.07503}},{"name":"DUNKIN DONUTS (CITY PLACE)","city":"Boston","location":{"lat":42.351362,"lng":-71.06874}},{"name":"DUNKIN DONUTS @ HAYDEN HALL","city":"BOSTON","location":{"lat":42.3594,"lng":-71.0587}},{"name":"Dunkin Donuts @ MBTA Station","city":"Boston","location":{"lat":42.34738,"lng":-71.07484}},{"name":"Dunkin' Donuts Express","city":"BOSTON","location":{"lat":42.3594,"lng":-71.0587}},{"name":"DUNKIN' DONUTS/BASKIN ROBINS","city":"Boston","location":{"lat":42.352225,"lng":-71.064909}},{"name":"Earl of Sandwich","city":"Boston","location":{"lat":42.351541,"lng":-71.067431}},{"name":"EMILIOS PIZZA & SUBS","city":"Roxbury","location":{"lat":42.344289,"lng":-71.07056}},{"name":"Equinox Cafe","city":"Boston","location":{"lat":42.34682,"lng":-71.07543}},{"name":"FINAGLE-A-BAGEL","city":"Boston","location":{"lat":42.35087,"lng":-71.07558}},{"name":"Firehouse Subs","city":"Boston","location":{"lat":42.35078,"lng":-71.07581}},{"name":"Fisher College Cafe","city":"Boston","location":{"lat":42.35525,"lng":-71.07414}},{"name":"FLAMES RESTAURANT","city":"Mission Hill","location":{"lat":42.333629,"lng":-71.105491}},{"name":"Genki Ya of Boston","city":"Boston","location":{"lat":42.351219,"lng":-71.064646}},{"name":"Guckenheimer @ Berkeley Cafe","city":"Boston","location":{"lat":42.35006,"lng":-71.072919}},{"name":"Herrera's Burritos","city":"Boston","location":{"lat":42.351362,"lng":-71.06874}},{"name":"Iron Wok (Unit F-3)","city":"Boston","location":{"lat":42.351362,"lng":-71.06874}},{"name":"Juice Boston @ MBTA","city":"Boston","location":{"lat":42.34738,"lng":-71.07484}},{"name":"L.A. Burdick Chocolate","city":"Boston","location":{"lat":42.351219,"lng":-71.075653}},{"name":"Liberty Mutual Berkeley (1st Fl.)","city":"Boston","location":{"lat":42.3594,"lng":-71.0587}},{"name":"METRO SUBWAY","city":"Boston","location":{"lat":42.351109,"lng":-71.07458}},{"name":"Metropolitan In Town Restaurant Bar","city":"Boston","location":{"lat":42.35112,"lng":-71.07758}},{"name":"Neighborhoods","city":"Boston","location":{"lat":42.34302,"lng":-71.099229}},{"name":"New York Pizza","city":"Boston","location":{"lat":42.35145,"lng":-71.06456}},{"name":"Osaka Express","city":"Boston","location":{"lat":42.351362,"lng":-71.06874}},{"name":"Pret A Manger","city":"Boston","location":{"lat":42.351285,"lng":-71.07467}},{"name":"Pret A Manger","city":"Boston","location":{"lat":42.34882,"lng":-71.0831}},{"name":"Rebecca's Cafe","city":"Boston","location":{"lat":42.35053,"lng":-71.0739}},{"name":"Rome Pizza","city":"Roxbury","location":{"lat":42.346778,"lng":-71.068561}},{"name":"Sandella's Flatbread Cafe","city":"Boston","location":{"lat":42.351362,"lng":-71.06874}},{"name":"SODEXO@EMERSON'S CAFE(1st Fl.)","city":"Boston","location":{"lat":42.352225,"lng":-71.064909}},{"name":"Sofa Cafe","city":"Boston","location":{"lat":42.35013,"lng":-71.08137}},{"name":"SOUPER SALAD","city":"Boston","location":{"lat":42.350717,"lng":-71.07254}},{"name":"Squeeze Juice Bar","city":"Boston","location":{"lat":42.34682,"lng":-71.07543}},{"name":"Starbucks Coffee # 7544","city":"Boston","location":{"lat":42.34938,"lng":-71.0811}},{"name":"Starbucks Coffee # 7564","city":"Boston","location":{"lat":42.35199,"lng":-71.06439}},{"name":"Starbucks Coffee # 7652","city":"BOSTON","location":{"lat":42.3594,"lng":-71.0587}},{"name":"Starbucks Coffee # 807","city":"Boston","location":{"lat":42.3594,"lng":-71.0587}},{"name":"Starbucks Coffee # 822","city":"BOSTON","location":{"lat":42.3594,"lng":-71.0587}},{"name":"Starbucks Coffee # 830","city":"Boston","location":{"lat":42.351561,"lng":-71.073022}},{"name":"STARBUCKS COFFEE # 870","city":"Boston","location":{"lat":42.35082,"lng":-71.07887}},{"name":"Starbucks Coffee/Transportation Bldg.","city":"Boston","location":{"lat":42.3594,"lng":-71.0587}},{"name":"THE CATERED AFFAIR @ BOS. PUBLIC LIBRARY(T.O.)","city":"Boston","location":{"lat":42.349231,"lng":-71.078658}},{"name":"Trattoria Newbury","city":"Boston","location":{"lat":42.3492,"lng":-71.08312}},{"name":"Uno Chicago Grill","city":"Boston","location":{"lat":42.349589,"lng":-71.080292}},{"name":"Viga","city":"Boston","location":{"lat":42.348611,"lng":-71.074438}},{"name":"Viga","city":"Boston","location":{"lat":42.349832,"lng":-71.070578}},{"name":"WENDY'S OLD FASHIONED HAMBURERS","city":"Boston","location":{"lat":42.350736,"lng":-71.076005}},{"name":"Westin Copley Place Ingredients","city":"Boston","location":{"lat":42.348545,"lng":-71.077314}},{"name":"WICH ! T","city":"Boston","location":{"lat":42.34941,"lng":-71.0824}},{"name":"Wired Puppy","city":"Boston","location":{"lat":42.34935,"lng":-71.0826}}]}]},{"name":"02118","location":{"lat":42.3377967,"lng":-71.0705763},"children":[{"name":"School","size":3,"children":[{"name":"Hurley Elementary","building":"Hurley Bldg","location":{"lat":42.33917608244011,"lng":-71.07783281457425}},{"name":"Blackstone Elementary","building":"Blackstone Bldg","location":{"lat":42.340002731500704,"lng":-71.07395703775717}},{"name":"Carter Center","building":"Carter Center Bldg","location":{"lat":42.340120185922935,"lng":-71.08406795278779}}]},{"name":"Company","size":17,"children":[]},{"name":"Food","size":41,"children":[{"name":"ALEX PIZZA","city":"Roxbury","location":{"lat":42.342301,"lng":-71.067378}},{"name":"Andre's Cafe","city":"Roxbury","location":{"lat":42.335768,"lng":-71.074298}},{"name":"BOSTON MEDICAL CENTER KIOSK ON BRIDGE","city":"BOSTON","location":{"lat":42.3594,"lng":-71.0587}},{"name":"Cafe @Mohr & McPherson","city":"Roxbury","location":{"lat":42.342238,"lng":-71.064278}},{"name":"CAFE 1010","city":"Roxbury","location":{"lat":42.327867,"lng":-71.06727}},{"name":"Chequers Coffee Express","city":"Roxbury","location":{"lat":42.336202,"lng":-71.072487}},{"name":"Corner Cafe","city":"Roxbury","location":{"lat":42.3393,"lng":-71.07995}},{"name":"Dunkin Donuts","city":"BOSTON","location":{"lat":42.3594,"lng":-71.0587}},{"name":"Dunkin Donuts/1138 Washington St.","city":"Roxbury","location":{"lat":42.343695,"lng":-71.065841}},{"name":"DUNKIN DONUTS/SCNVANOS","city":"BOSTON","location":{"lat":42.3594,"lng":-71.0587}},{"name":"El Centro","city":"BOSTON","location":{"lat":42.3594,"lng":-71.0587}},{"name":"El Triunfo Restaurant","city":"Roxbury","location":{"lat":42.3435,"lng":-71.0648}},{"name":"Grille 705","city":"BOSTON","location":{"lat":42.3594,"lng":-71.0587}},{"name":"Hen House","city":"Roxbury","location":{"lat":42.32709,"lng":-71.06764}},{"name":"HIDDEN KITCHEN","city":"Roxbury","location":{"lat":42.338403,"lng":-71.066939}},{"name":"J.R.'S HIDEAWAY","city":"Roxbury","location":{"lat":42.335891,"lng":-71.06312}},{"name":"JAE'S CAFE & GRILL INC","city":"BOSTON","location":{"lat":42.3594,"lng":-71.0587}},{"name":"Jaho Coffee & Tea","city":"Roxbury","location":{"lat":42.3379,"lng":-71.07541}},{"name":"LAZ CAFE","city":"Roxbury","location":{"lat":42.33651,"lng":-71.07645}},{"name":"M.G.S. Cafe Inc.","city":"BOSTON","location":{"lat":42.3594,"lng":-71.0587}},{"name":"Mana Escondido Cafe","city":"South End","location":{"lat":42.342688,"lng":-71.076901}},{"name":"Mangia Neapolitan Pizzeria","city":"Roxbury","location":{"lat":42.3417,"lng":-71.08078}},{"name":"Mcdonalds","city":"BOSTON","location":{"lat":42.3594,"lng":-71.0587}},{"name":"Molina Restaurant","city":"Roxbury","location":{"lat":42.330416,"lng":-71.066709}},{"name":"NEW CHINA RESTAURANT","city":"BOSTON","location":{"lat":42.3594,"lng":-71.0587}},{"name":"NEW ENGLAND AQUARIUM-IMAX","city":"BOSTON","location":{"lat":42.3594,"lng":-71.0587}},{"name":"New York Sub Shop","city":"BOSTON","location":{"lat":42.3594,"lng":-71.0587}},{"name":"NICOLE'S PIZZA","city":"Roxbury","location":{"lat":42.34233,"lng":-71.07514}},{"name":"Pizzatalia","city":"Roxbury","location":{"lat":42.33536,"lng":-71.08059}},{"name":"Project Place Gatehouse","city":"Roxbury","location":{"lat":42.3438,"lng":-71.06631}},{"name":"Render Coffee","city":"Roxbury","location":{"lat":42.341146,"lng":-71.08149}},{"name":"Soul Fire","city":"Boston","location":{"lat":42.334069,"lng":-71.105529}},{"name":"South End Formaggio","city":"BOSTON","location":{"lat":42.3594,"lng":-71.0587}},{"name":"SOUTH END HOUSE OF PIZZA","city":"BOSTON","location":{"lat":42.3594,"lng":-71.0587}},{"name":"STARBUCKS COFFEE INC.","city":"Roxbury","location":{"lat":42.34261,"lng":-71.07464}},{"name":"Subway","city":"Roxbury","location":{"lat":42.33587,"lng":-71.0742}},{"name":"SUNRISE RESTAURANT","city":"BOSTON","location":{"lat":42.3594,"lng":-71.0587}},{"name":"The Upper Crust","city":"Roxbury","location":{"lat":42.34156,"lng":-71.07662}},{"name":"The Wholy Grain","city":"Roxbury","location":{"lat":42.34304,"lng":-71.06941}},{"name":"YAN'S CHINA STAR","city":"Roxbury","location":{"lat":42.344269,"lng":-71.065308}},{"name":"YUM MEE GARDEN","city":"Roxbury","location":{"lat":42.34195,"lng":-71.07587}}]}]},{"name":"02119","location":{"lat":42.32182359999999,"lng":-71.08840359999999},"children":[{"name":"School","size":13,"children":[{"name":"Mason Elementary","building":"Mason Bldg","location":{"lat":42.32634848514348,"lng":-71.07087371277584}},{"name":"Orchard Gardens K-8","building":"Orchard Gardens K-8","location":{"lat":42.33033533762743,"lng":-71.07822289309473}},{"name":"Dearborn Middle","building":"Dearborn Bldg","location":{"lat":42.32616216546978,"lng":-71.08038719026666}},{"name":"Boston Evening Academy","building":"Wheatley Bldg","location":{"lat":42.32383000005461,"lng":-71.0855000003246}},{"name":"Timilty Middle","building":"Timilty Bldg","location":{"lat":42.33016414850016,"lng":-71.09106214275448}},{"name":"Hale Elementary","building":"Hale Bldg","location":{"lat":42.32510468708415,"lng":-71.09094395274691}},{"name":"Higginson/Lewis K-8","building":"Lewis Bldg","location":{"lat":42.32099106380133,"lng":-71.08594500040778}},{"name":"Haynes EEC","building":"Blue Hill Ave Eec Bldg","location":{"lat":42.315410752522894,"lng":-71.07848099089243}},{"name":"Ellis Elementary","building":"Ellis Bldg","location":{"lat":42.3165135808906,"lng":-71.09314406776761}},{"name":"Hernandez K-8","building":"Hernandez Bldg","location":{"lat":42.313811081021406,"lng":-71.09821569596275}},{"name":"Mendell Elementary","building":"Mendell Bldg","location":{"lat":42.31661136551861,"lng":-71.10115253592323}},{"name":"Greater Egleston High","building":"Greater Egleston High","location":{"lat":42.31434028136342,"lng":-71.09922606726064}},{"name":"Dudley Street Neighborhood Charter School","building":"Emerson Building","location":{"lat":42.32332930107748,"lng":-71.07288684454232}}]},{"name":"Company","size":357,"children":[]},{"name":"Food","size":39,"children":[{"name":"Anshur Restauruant","city":"Roxbury","location":{"lat":42.33041,"lng":-71.0943}},{"name":"Arizona B B Q","city":"Roxbury","location":{"lat":42.32937,"lng":-71.08446}},{"name":"BACKWOODS PIZZA","city":"Roxbury","location":{"lat":42.321739,"lng":-71.072511}},{"name":"Blue Hill Coffee Shop","city":"Dorchester","location":{"lat":42.318959,"lng":-71.077569}},{"name":"Blue Hill Pizza","city":"Roxbury","location":{"lat":42.31931,"lng":-71.07795}},{"name":"Chinese Noodle","city":"ROXBURY","location":{"lat":42.3594,"lng":-71.0587}},{"name":"Crown Fried Chicken and Pizza","city":"Roxbury","location":{"lat":42.31898,"lng":-71.08113}},{"name":"DAYIB CAFE","city":"Roxbury","location":{"lat":42.332783,"lng":-71.083221}},{"name":"Domino's Pizza","city":"ROXBURY","location":{"lat":42.3594,"lng":-71.0587}},{"name":"Dudley Square Grille(tm)","city":"Roxbury","location":{"lat":42.32881,"lng":-71.08328}},{"name":"Dunkin' Donuts","city":"Roxbury","location":{"lat":42.317029,"lng":-71.098011}},{"name":"Dunkin' Donuts","city":"Roxbury","location":{"lat":42.32937,"lng":-71.08446}},{"name":"DUNKIN DONUTS'","city":"ROXBURY","location":{"lat":42.3594,"lng":-71.0587}},{"name":"DUNKIN DONUTS/BASKIN ROBBINS","city":"ROXBURY","location":{"lat":42.3594,"lng":-71.0587}},{"name":"Eddy's Restaurant","city":"Roxbury","location":{"lat":42.330764,"lng":-71.083344}},{"name":"EGLESTON PIZZA","city":"Roxbury","location":{"lat":42.31545,"lng":-71.09841}},{"name":"Empanada's House","city":"Dorchester","location":{"lat":42.312609,"lng":-71.089679}},{"name":"Express Cafe  Inc.","city":"Roxbury","location":{"lat":42.330446,"lng":-71.08203}},{"name":"Flik@Suffolk Construction","city":"Roxbury","location":{"lat":42.32824,"lng":-71.0701}},{"name":"Hafun Cafe","city":"Roxbury","location":{"lat":42.329699,"lng":-71.085422}},{"name":"IDEAL SUB SHOP","city":"Roxbury","location":{"lat":42.322343,"lng":-71.072418}},{"name":"JOE'S SUBS","city":"Roxbury","location":{"lat":42.329035,"lng":-71.08372}},{"name":"KALIHARI GRILL","city":"Roxbury","location":{"lat":42.32318,"lng":-71.08645}},{"name":"LUCKY BOSTON CHINESE REST.","city":"Roxbury","location":{"lat":42.31506,"lng":-71.09877}},{"name":"Mario's Subs & Salad","city":"ROXBURY","location":{"lat":42.3594,"lng":-71.0587}},{"name":"Mcdonalds (Warren St.)","city":"roxbury","location":{"lat":42.3594,"lng":-71.0587}},{"name":"McDonald's(3060 Washington St.)","city":"Roxbury","location":{"lat":42.31579,"lng":-71.09794}},{"name":"Mr. G's","city":"Roxbury","location":{"lat":42.330446,"lng":-71.08203}},{"name":"New Market Pizza & Grill","city":"Roxbury","location":{"lat":42.33208,"lng":-71.07102}},{"name":"New York Fried Chicken","city":"BOSTON","location":{"lat":42.3594,"lng":-71.0587}},{"name":"Nos Casa Cafe","city":"Roxbury","location":{"lat":42.32325,"lng":-71.073678}},{"name":"PRIEL'S RESTAURANT PIZZA & MORE","city":"Roxbury","location":{"lat":42.32487,"lng":-71.07551}},{"name":"Red Island Restaurant","city":"ROXBURY","location":{"lat":42.3594,"lng":-71.0587}},{"name":"Royal Fried Chicken","city":"Roxbury","location":{"lat":42.329364,"lng":-71.084435}},{"name":"Stop & Shop Supermarkt Co.","city":"BOSTON","location":{"lat":42.3594,"lng":-71.0587}},{"name":"Stop & Taste","city":"Roxbury","location":{"lat":42.328378,"lng":-71.079848}},{"name":"Tom's Sandwich Shop","city":"Roxbury","location":{"lat":42.33377,"lng":-71.07548}},{"name":"UGIS SUBS","city":"Roxbury","location":{"lat":42.32843,"lng":-71.08311}},{"name":"Yummy Yummy","city":"Roxbury","location":{"lat":42.32937,"lng":-71.08446}}]}]},{"name":"02120","location":{"lat":42.33191670000001,"lng":-71.09880249999999},"children":[{"name":"School","size":3,"children":[{"name":"Madison Park High","building":"Madison Park Bldg #1","location":{"lat":42.33130553352856,"lng":-71.09167804257322}},{"name":"O'Bryant Math & Sci.","building":"Madison Park Bldg #3 - O'Bryant","location":{"lat":42.33080266714097,"lng":-71.08861598683478}},{"name":"Tobin K-8","building":"Tobin Bldg","location":{"lat":42.33341070102597,"lng":-71.09806786136272}}]},{"name":"Company","size":34,"children":[]},{"name":"Food","size":16,"children":[{"name":"A K's Take Out & Delivery","city":"Mission Hill","location":{"lat":42.331858,"lng":-71.096333}},{"name":"ALI ROTI RESTAURANT","city":"Mission Hill","location":{"lat":42.33666,"lng":-71.08563}},{"name":"CHACHO'S PIZZA","city":"Mission Hill","location":{"lat":42.332099,"lng":-71.099309}},{"name":"Dunkin' Donuts","city":"Boston","location":{"lat":42.335545,"lng":-71.088188}},{"name":"Dunkin Donuts (1447 Tremont St.)","city":"Mission Hill","location":{"lat":42.33198,"lng":-71.09681}},{"name":"GOOD EAST PIZZA","city":"Mission Hill","location":{"lat":42.336821,"lng":-71.084559}},{"name":"IL MONDO","city":"Mission Hill","location":{"lat":42.334854,"lng":-71.102439}},{"name":"JP LICKS @ BRIGHAM CIRCLE","city":"Mission Hill","location":{"lat":42.333351,"lng":-71.10442}},{"name":"Lilly Gourmet Pasta Express","city":"Mission Hill","location":{"lat":42.332278,"lng":-71.100023}},{"name":"MIKES DONUTS","city":"ROXBURY","location":{"lat":42.3594,"lng":-71.0587}},{"name":"PAPA JOHNS PIZZA","city":"ROXBURY","location":{"lat":42.3594,"lng":-71.0587}},{"name":"Slade's Bar & Grill","city":"Mission Hill","location":{"lat":42.33728,"lng":-71.08355}},{"name":"Subway","city":"ROXBURY","location":{"lat":42.3594,"lng":-71.0587}},{"name":"Subway","city":"Mission Hill","location":{"lat":42.33193,"lng":-71.111789}},{"name":"TREMONT HOUSE OF PIZZA","city":"Mission Hill","location":{"lat":42.3334,"lng":-71.10305}},{"name":"Ugi's Pizza","city":"Mission Hill","location":{"lat":42.32657,"lng":-71.1005}}]}]},{"name":"02121","location":{"lat":42.3065441,"lng":-71.08246129999999},"children":[{"name":"School","size":7,"children":[{"name":"Trotter Elementary","building":"Trotter Bldg","location":{"lat":42.3153547643682,"lng":-71.08781158305847}},{"name":"Boston Latin Academy","building":"Boston Latin Academy Bldg","location":{"lat":42.31671029094184,"lng":-71.08542339363078}},{"name":"King K-8","building":"King Bldg","location":{"lat":42.31152120283281,"lng":-71.07621433605073}},{"name":"Frederick Pilot Middle","building":"Frederick Middle","location":{"lat":42.30875264264692,"lng":-71.07467902522195}},{"name":"Holland Elementary","building":"Holland Bldg","location":{"lat":42.305504432349665,"lng":-71.07292403616798}},{"name":"Greenwood Sarah K-8","building":"Greenwood  S Bldg","location":{"lat":42.29657447070582,"lng":-71.08053108179138}},{"name":"Burke High","building":"Burke High School Bldg","location":{"lat":42.306592918112244,"lng":-71.08185308517443}}]},{"name":"Company","size":5,"children":[]},{"name":"Food","size":23,"children":[{"name":"Antojitos Dominicanos Y Mas","city":"Dorchester","location":{"lat":42.31175,"lng":-71.08108}},{"name":"Blue Island","city":"Dorchester","location":{"lat":42.311782,"lng":-71.081059}},{"name":"Boston Big Easy","city":"Dorchester","location":{"lat":42.302878,"lng":-71.085018}},{"name":"Burger King","city":"Dorchester","location":{"lat":42.3594,"lng":-71.0587}},{"name":"Burrito's Pizzeria","city":"Dorchester","location":{"lat":42.307484,"lng":-71.076411}},{"name":"Down Home Delivery & Catering","city":"Dorchester","location":{"lat":42.29962,"lng":-71.07332}},{"name":"DUNKIN DONUTS BLUE HILL AVE","city":"Dorchester","location":{"lat":42.309398,"lng":-71.08204}},{"name":"El Dugout","city":"Dorchester","location":{"lat":42.30992,"lng":-71.09152}},{"name":"EMZ PIZZA AND ICE CREAM","city":"DORCHESTER","location":{"lat":42.3594,"lng":-71.0587}},{"name":"FLAMES RESTAURANT III  INC.","city":"DORCHESTER","location":{"lat":42.3594,"lng":-71.0587}},{"name":"ISLAND STYLE INC.","city":"Dorchester","location":{"lat":42.303349,"lng":-71.07876}},{"name":"LAS BRISAS DEL CARIBE","city":"DORCHESTER","location":{"lat":42.3594,"lng":-71.0587}},{"name":"New York Fried Chicken","city":"Dorchester","location":{"lat":42.309591,"lng":-71.082238}},{"name":"P S Gourmet Coffee","city":"Dorchester","location":{"lat":42.283805,"lng":-71.055331}},{"name":"Queen Bee Cafe & Grill","city":"Dorchester","location":{"lat":42.30835,"lng":-71.08361}},{"name":"Reggae On the Grill","city":"Dorchester","location":{"lat":42.304469,"lng":-71.079646}},{"name":"RINO'S PIZZA","city":"Dorchester","location":{"lat":42.299836,"lng":-71.086029}},{"name":"San Ga","city":"Dorchester","location":{"lat":42.31175,"lng":-71.08108}},{"name":"Santo Domingo  Restaurant","city":"Dorchester","location":{"lat":42.30341,"lng":-71.07879}},{"name":"STASH'S PIZZA","city":"Dorchester","location":{"lat":42.303207,"lng":-71.084901}},{"name":"SUN PIZZA","city":"Dorchester","location":{"lat":42.30715,"lng":-71.08214}},{"name":"The Rotisserie","city":"Dorchester","location":{"lat":42.309756,"lng":-71.083018}},{"name":"VAUGHN'S FISH N CHIPS","city":"Dorchester","location":{"lat":42.303295,"lng":-71.078779}}]}]},{"name":"02122","location":{"lat":42.29671460000001,"lng":-71.0527482},"children":[{"name":"School","size":5,"children":[{"name":"Mather Elementary","building":"Mather Bldg","location":{"lat":42.307922034764694,"lng":-71.06258964420758}},{"name":"Harbor School","building":"Cleveland Bldg","location":{"lat":42.300657414511114,"lng":-71.0612289865104}},{"name":"Henderson Elementary","building":"Ohearn Bldg","location":{"lat":42.293640257317314,"lng":-71.06218170226815}},{"name":"Murphy K-8","building":"Murphy Bldg","location":{"lat":42.29468995419834,"lng":-71.05005749201418}},{"name":"Kenny Elementary","building":"Kenny Bldg","location":{"lat":42.28667113036399,"lng":-71.05353407142158}}]},{"name":"Company","size":1,"children":[]},{"name":"Food","size":29,"children":[{"name":"BA LE FIELDS CORNER","city":"DORCHESTER","location":{"lat":42.3594,"lng":-71.0587}},{"name":"BLASI'S CAFE","city":"Dorchester","location":{"lat":42.28373,"lng":-71.05536}},{"name":"BOSTON MARKET","city":"Dorchester","location":{"lat":42.290076,"lng":-71.044879}},{"name":"China Pagoda Restaurant","city":"Dorchester","location":{"lat":42.2954,"lng":-71.06139}},{"name":"CHUNG WAH","city":"Dorchester","location":{"lat":42.30509,"lng":-71.06819}},{"name":"D'ANGELOS SANDWICH SHOP","city":"DORCHESTER","location":{"lat":42.3594,"lng":-71.0587}},{"name":"Domino's Pizza (Adams Street)","city":"Dorchester","location":{"lat":42.301927,"lng":-71.060226}},{"name":"Dunkin Donuts","city":"Dorchester","location":{"lat":42.296914,"lng":-71.060388}},{"name":"Dunkin Donuts","city":"DORCHESTER","location":{"lat":42.3594,"lng":-71.0587}},{"name":"DUNKIN DONUTS/GALLIVAN","city":"DORCHESTER","location":{"lat":42.3594,"lng":-71.0587}},{"name":"GIDDY UP GRILL","city":"BOSTON","location":{"lat":42.3594,"lng":-71.0587}},{"name":"GREENHILLS BAKERY","city":"Dorchester","location":{"lat":42.28327,"lng":-71.05557}},{"name":"HI-FI PIZZA","city":"Dorchester","location":{"lat":42.299301,"lng":-71.060249}},{"name":"MAGIC WOK RESTAURANT","city":"DORCHESTER","location":{"lat":42.3594,"lng":-71.0587}},{"name":"MCDONALD'S REST","city":"Dorchester","location":{"lat":42.29878,"lng":-71.06296}},{"name":"Minina's Cafe","city":"Dorchester","location":{"lat":42.30059,"lng":-71.06637}},{"name":"My Sisters Crawfish","city":"Dorchester","location":{"lat":42.299956,"lng":-71.058007}},{"name":"Mythos Pizza","city":"Dorchester","location":{"lat":42.30517,"lng":-71.06811}},{"name":"Nevilles Bakery & Restaurant","city":"Dorchester","location":{"lat":42.300918,"lng":-71.066929}},{"name":"PAPA GINO'S","city":"Dorchester","location":{"lat":42.284619,"lng":-71.045761}},{"name":"PAPA RINO'S PIZZA","city":"Dorchester","location":{"lat":42.30136,"lng":-71.067739}},{"name":"Pizza 24","city":"Dorchester","location":{"lat":42.299073,"lng":-71.058029}},{"name":"RIDDICK'S HOUSE OF PIZZA","city":"Dorchester","location":{"lat":42.28651,"lng":-71.04386}},{"name":"Saigon Seafood Restaurant","city":"Dorchester","location":{"lat":42.3594,"lng":-71.0587}},{"name":"Stop & Shop/Dunkin Donuts","city":"DORCHESTER","location":{"lat":42.3594,"lng":-71.0587}},{"name":"Subway","city":"Dorchester","location":{"lat":42.297107,"lng":-71.060479}},{"name":"THE BOSTON ICE CREAM FACTORY","city":"Dorchester","location":{"lat":42.294809,"lng":-71.048338}},{"name":"VINA ROAST","city":"Dorchester","location":{"lat":42.306157,"lng":-71.059048}},{"name":"Yuen Barbeque Restaurant","city":"DORCHESTER","location":{"lat":42.3594,"lng":-71.0587}}]}]},{"name":"02124","location":{"lat":42.2826027,"lng":-71.067605},"children":[{"name":"School","size":11,"children":[{"name":"Marshall Elementary","building":"Marshall Bldg","location":{"lat":42.300070676873446,"lng":-71.07090008361331}},{"name":"Dorchester Academy","building":"Wilson Bldg","location":{"lat":42.281020622561364,"lng":-71.06963945065642}},{"name":"Boston International HS","building":"Thompson Bldg","location":{"lat":42.28160975213825,"lng":-71.08065698687545}},{"name":"Newcomers Academy","building":"Thompson Bldg","location":{"lat":42.28160975213825,"lng":-71.08065698687545}},{"name":"TechBoston Academy","building":"Dorchester Ed. Bldg #1 - Main","location":{"lat":42.287968441354764,"lng":-71.07678053840408}},{"name":"Lee Elementary","building":"Lee Bldg","location":{"lat":42.292509838914825,"lng":-71.0799995461606}},{"name":"Lee Academy","building":"Lee Bldg","location":{"lat":42.292509838914825,"lng":-71.0799995461606}},{"name":"Holmes Elementary","building":"Holmes Bldg","location":{"lat":42.296775923738565,"lng":-71.07533564431431}},{"name":"Boston Adult Tech Acad","building":"Shaw  P.A. Bldg","location":{"lat":42.28167303810778,"lng":-71.08699911763809}},{"name":"TechBoston Acad Lower (6-9)","building":"Dorchester Ed. Bldg #1 - Main","location":{"lat":42.287968441354764,"lng":-71.07678053840408}},{"name":"ECC at Fifield","building":"Fifield Building","location":{"lat":42.286574009740036,"lng":-71.0730127496264}}]},{"name":"Company","size":1,"children":[]},{"name":"Food","size":43,"children":[{"name":"AUNTIE VIE'S BAKERY & CAFE","city":"Dorchester","location":{"lat":42.29469,"lng":-71.07168}},{"name":"Beach House Cafe","city":"Dorchester","location":{"lat":42.28323,"lng":-71.05596}},{"name":"BON APPETIT RESTAURANT","city":"Dorchester","location":{"lat":42.285777,"lng":-71.09125}},{"name":"Canton House Restaurant","city":"DORCHESTER","location":{"lat":42.3594,"lng":-71.0587}},{"name":"Caribe Restaurant","city":"Dorchester","location":{"lat":42.292205,"lng":-71.071965}},{"name":"CHARLIE'S HOUSE OF PIZZA","city":"DORCHESTER","location":{"lat":42.3594,"lng":-71.0587}},{"name":"China Sky Restaurant","city":"Dorchester","location":{"lat":42.283093,"lng":-71.055609}},{"name":"China Station Restaurant","city":"Dorchester","location":{"lat":42.29298,"lng":-71.07162}},{"name":"Crown Fried Chicken","city":"Dorchester","location":{"lat":42.29004,"lng":-71.08925}},{"name":"D'BENNY'S SUBS","city":"DORCHESTER","location":{"lat":42.3594,"lng":-71.0587}},{"name":"DIMITRIOS HOUSE OF PIZZA","city":"Dorchester","location":{"lat":42.290228,"lng":-71.062881}},{"name":"Dunkin Donuts","city":"DORCHESTER","location":{"lat":42.3594,"lng":-71.0587}},{"name":"Dunkin' Donuts","city":"Dorchester","location":{"lat":42.272382,"lng":-71.067789}},{"name":"DUNKIN DONUTS (CARNEY)","city":"DORCHESTER","location":{"lat":42.3594,"lng":-71.0587}},{"name":"Dunkin Donuts @ Stop & Shop","city":"DORCHESTER","location":{"lat":42.3594,"lng":-71.0587}},{"name":"Dunkin Donuts(Seton Bldg.)","city":"Dorchester Center","location":{"lat":42.3594,"lng":-71.0587}},{"name":"Five Star Pizza & Grill","city":"Dorchester","location":{"lat":42.283597,"lng":-71.050828}},{"name":"FLAT BLACK COFFEE CO. LTD.","city":"Dorchester","location":{"lat":42.272412,"lng":-71.068339}},{"name":"Flat Black Coffee Company","city":"Dorchester","location":{"lat":42.3594,"lng":-71.0587}},{"name":"Friturilandia & Grill","city":"Dorchester","location":{"lat":42.291968,"lng":-71.08805}},{"name":"Handy & Person Catering","city":"Dorchester","location":{"lat":42.283394,"lng":-71.055886}},{"name":"JOHNNY'S PIZZA & SUBS","city":"Dorchester","location":{"lat":42.285213,"lng":-71.064638}},{"name":"Kapow","city":"Dorchester","location":{"lat":42.273398,"lng":-71.067948}},{"name":"Kentucky Fried Chicken","city":"Dorchester","location":{"lat":42.295093,"lng":-71.072339}},{"name":"LALA LUNCHEONETTE RESTAURANT","city":"Dorchester","location":{"lat":42.283811,"lng":-71.07134}},{"name":"McDonald's","city":"Dorchester","location":{"lat":42.290394,"lng":-71.07187}},{"name":"McDonald's Restaurant","city":"DORCHESTER","location":{"lat":42.3594,"lng":-71.0587}},{"name":"Mrs. Jones","city":"Dorchester","location":{"lat":42.27339,"lng":-71.06795}},{"name":"Nadina's Pizza","city":"Dorchester","location":{"lat":42.29933,"lng":-71.06479}},{"name":"Nick's Pizza and Seafood","city":"DORCHESTER","location":{"lat":42.3594,"lng":-71.0587}},{"name":"No. 1 Chinese Restaurant","city":"Dorchester","location":{"lat":42.28072,"lng":-71.08314}},{"name":"ONLY ONE JAMAICAN RESTAURANT","city":"Dorchester","location":{"lat":42.287159,"lng":-71.07862}},{"name":"ORIENTAL HOUSE","city":"Dorchester","location":{"lat":42.292072,"lng":-71.071521}},{"name":"PATS PIZZA","city":"Dorchester","location":{"lat":42.273506,"lng":-71.067541}},{"name":"Perry's Catering","city":"Dorchester","location":{"lat":42.294214,"lng":-71.072138}},{"name":"Sea Breeze Grill","city":"Dorchester","location":{"lat":42.3594,"lng":-71.0587}},{"name":"STEFANO'S PIZZA","city":"Dorchester","location":{"lat":42.281561,"lng":-71.0713}},{"name":"Subway","city":"Dorchester","location":{"lat":42.292072,"lng":-71.071521}},{"name":"SUN PIZZA.","city":"DORCHESTER","location":{"lat":42.3594,"lng":-71.0587}},{"name":"SUN-AH'S CAFE","city":"Dorchester","location":{"lat":42.29415,"lng":-71.07213}},{"name":"Taste of Eden","city":"Dorchester","location":{"lat":42.289223,"lng":-71.07283}},{"name":"WINDY CITY AT ADAMS VILLAGE","city":"Dorchester","location":{"lat":42.282928,"lng":-71.055559}},{"name":"YONG HON RESTAURANT","city":"DORCHESTER","location":{"lat":42.3594,"lng":-71.0587}}]}]},{"name":"02125","location":{"lat":42.3157363,"lng":-71.0527482},"children":[{"name":"School","size":6,"children":[{"name":"Clap Elementary","building":"Clap Bldg","location":{"lat":42.32305512278933,"lng":-71.05827128016072}},{"name":"Russell Elementary","building":"Russell Bldg","location":{"lat":42.32006500285939,"lng":-71.0597203689021}},{"name":"Winthrop Elementary","building":"Winthrop Bldg","location":{"lat":42.31837317323726,"lng":-71.07556583274686}},{"name":"Everett Elementary","building":"Everett Bldg","location":{"lat":42.31411775610312,"lng":-71.05989955788655}},{"name":"Dever Elementary","building":"Dever Bldg","location":{"lat":42.31775350449584,"lng":-71.0420850650388}},{"name":"McCormack Middle","building":"Mccormack Bldg","location":{"lat":42.31838302991633,"lng":-71.04390169553801}}]},{"name":"Company","size":0,"children":[]},{"name":"Food","size":32,"children":[{"name":"BALE RESTAURANT","city":"DORCHESTER","location":{"lat":42.3594,"lng":-71.0587}},{"name":"Boston Globe Kiosk # 2","city":"Dorchester","location":{"lat":42.315997,"lng":-71.049211}},{"name":"Burger King","city":"Dorchester","location":{"lat":42.309531,"lng":-71.057693}},{"name":"CANTON HOUSE","city":"Dorchester","location":{"lat":42.315595,"lng":-71.065919}},{"name":"Cape Verdeon Food  Terra Terra","city":"Dorchester","location":{"lat":42.31288,"lng":-71.06502}},{"name":"Casa Real Mexican Food","city":"DORCHESTER","location":{"lat":42.3594,"lng":-71.0587}},{"name":"Charlies Pizza and Kitchen","city":"Dorchester","location":{"lat":42.319061,"lng":-71.056494}},{"name":"Delicias Del Caribe","city":"Dorchester","location":{"lat":42.314644,"lng":-71.060322}},{"name":"Dunkin' Donuts","city":"Dorchester","location":{"lat":42.308431,"lng":-71.058031}},{"name":"Dunkin' Donuts","city":"Dorchester","location":{"lat":42.32087,"lng":-71.06091}},{"name":"Dunkin' Donuts","city":"Dorchester","location":{"lat":42.32179,"lng":-71.05698}},{"name":"Great Wok","city":"Dorchester","location":{"lat":42.32103,"lng":-71.06171}},{"name":"Kam Man Food South Bay","city":"Dorchester","location":{"lat":42.324296,"lng":-71.063122}},{"name":"Kentucky Fried Chicken","city":"Dorchester","location":{"lat":42.31997,"lng":-71.061799}},{"name":"LUCKY CAFE","city":"DORCHESTER","location":{"lat":42.3594,"lng":-71.0587}},{"name":"Mi Casa Tu Casa Restaurant","city":"Dorchester","location":{"lat":42.308104,"lng":-71.058789}},{"name":"Navarrete Restaurant","city":"DORCHESTER","location":{"lat":42.3594,"lng":-71.0587}},{"name":"NEW GARDEN RESTAURANT","city":"DORCHESTER","location":{"lat":42.3594,"lng":-71.0587}},{"name":"NEW YORK FRIED CHICKEN & PIZZA","city":"Dorchester","location":{"lat":42.315432,"lng":-71.06626}},{"name":"Nhu Lan Fast Food","city":"Dorchester","location":{"lat":42.311394,"lng":-71.058069}},{"name":"ON THE DOT CAFE","city":"DORCHESTER","location":{"lat":42.3594,"lng":-71.0587}},{"name":"PAPA JOHNS PIZZA","city":"DORCHESTER","location":{"lat":42.3594,"lng":-71.0587}},{"name":"Savin Scoops","city":"Dorchester","location":{"lat":42.311608,"lng":-71.053998}},{"name":"SODEXO @ UMASS JAZZMAN","city":"DORCHESTER","location":{"lat":42.3594,"lng":-71.0587}},{"name":"SODEXO UMASS-ATRIUM","city":"Dorchester","location":{"lat":42.313144,"lng":-71.038947}},{"name":"Sovereign Bank Coffee Bar","city":"Dorchester","location":{"lat":42.31943,"lng":-71.04927}},{"name":"SUGAR BOWL","city":"Dorchester","location":{"lat":42.321461,"lng":-71.05696}},{"name":"Sun Rise Restaurant Inc.","city":"DORCHESTER","location":{"lat":42.3594,"lng":-71.0587}},{"name":"The Avenue Grille","city":"Dorchester","location":{"lat":42.321424,"lng":-71.05653}},{"name":"Uno Chicago Grill","city":"BOSTON","location":{"lat":42.3594,"lng":-71.0587}},{"name":"UPHAMS HOUSE OF PIZZA","city":"DORCHESTER","location":{"lat":42.3594,"lng":-71.0587}},{"name":"VENICE PIZZA","city":"DORCHESTER","location":{"lat":42.3594,"lng":-71.0587}}]}]},{"name":"02126","location":{"lat":42.2771417,"lng":-71.0913748},"children":[{"name":"School","size":6,"children":[{"name":"Taylor Elementary","building":"Taylor Bldg","location":{"lat":42.27745717490273,"lng":-71.0776090747091}},{"name":"Mildred Avenue K-8","building":"Mildred Avenue Bldg","location":{"lat":42.275681819508414,"lng":-71.09201993902776}},{"name":"Young Achievers K-8","building":"Lewenberg Bldg","location":{"lat":42.28194771120152,"lng":-71.093956683085}},{"name":"Mattahunt Elementary","building":"Mattahunt Bldg","location":{"lat":42.27419091928787,"lng":-71.10613888078164}},{"name":"Chittick Elementary","building":"Chittick Bldg","location":{"lat":42.26703174204334,"lng":-71.10476781048101}},{"name":"Ellison/ Parks ELC","building":"Mattapan Eec Bldg","location":{"lat":42.27218485727121,"lng":-71.09198844444467}}]},{"name":"Company","size":255,"children":[]},{"name":"Food","size":25,"children":[{"name":"ALLIS ROTI + MEAT MARKET","city":"Mattapan","location":{"lat":42.28377,"lng":-71.09129}},{"name":"Blue House of Coffee","city":"Mattapan","location":{"lat":42.27076,"lng":-71.09398}},{"name":"Burger King","city":"MATTAPAN","location":{"lat":42.3594,"lng":-71.0587}},{"name":"CHINA SEA RESTAURANT","city":"MATTAPAN","location":{"lat":42.3594,"lng":-71.0587}},{"name":"CHINATOWN EXPRESS INC.","city":"Mattapan","location":{"lat":42.271418,"lng":-71.073999}},{"name":"Domino's Pizza (Dufficy Ent.)","city":"Mattapan","location":{"lat":42.267624,"lng":-71.093257}},{"name":"Dunkin Donuts (895 Morton St.)","city":"Mattapan","location":{"lat":42.28044,"lng":-71.084139}},{"name":"Fan Fan Bakery","city":"Mattapan","location":{"lat":42.283304,"lng":-71.089588}},{"name":"FLAMES RESTAURANT","city":"Mattapan","location":{"lat":42.28521,"lng":-71.09331}},{"name":"Las Vegas Express Restaurant","city":"Mattapan","location":{"lat":42.269621,"lng":-71.093209}},{"name":"Magee's Fish House","city":"MATTAPAN","location":{"lat":42.3594,"lng":-71.0587}},{"name":"Mattapan House of Pizza","city":"Mattapan","location":{"lat":42.268453,"lng":-71.094131}},{"name":"McDonald's Restaurant","city":"Mattapan","location":{"lat":42.268881,"lng":-71.093351}},{"name":"NEW YORK FRIED CHICKEN","city":"Mattapan","location":{"lat":42.283694,"lng":-71.091958}},{"name":"P & R ICE CREAM","city":"MATTAPAN","location":{"lat":42.3594,"lng":-71.0587}},{"name":"Pit Stop Barbecue","city":"Mattapan","location":{"lat":42.3594,"lng":-71.0587}},{"name":"Regal","city":"Dorchester","location":{"lat":42.284737,"lng":-71.092088}},{"name":"Restauranchito","city":"BOSTON","location":{"lat":42.3594,"lng":-71.0587}},{"name":"RIVER STREET GRILL","city":"Mattapan","location":{"lat":42.27157,"lng":-71.07364}},{"name":"SIMCO'S RESTAURANT","city":"Mattapan","location":{"lat":42.272368,"lng":-71.09389}},{"name":"SPUKIES PIZZA RESTAURANT","city":"Mattapan","location":{"lat":42.272239,"lng":-71.068856}},{"name":"TA BO RESTAURANT","city":"MATTAPAN","location":{"lat":42.3594,"lng":-71.0587}},{"name":"TATO'S PIZZERIA & SUB SHOP","city":"Mattapan","location":{"lat":42.283445,"lng":-71.091398}},{"name":"Top of The Hill","city":"Mattapan","location":{"lat":42.277526,"lng":-71.093761}},{"name":"Vikos Pizza & Ribs","city":"Mattapan","location":{"lat":42.26287,"lng":-71.10831}}]}]},{"name":"02127","location":{"lat":42.3364553,"lng":-71.0349193},"children":[{"name":"School","size":8,"children":[{"name":"Perkins Elementary","building":"Perkins Bldg","location":{"lat":42.331027909165584,"lng":-71.05058287588075}},{"name":"Excel High","building":"South Boston Ed. Bldg","location":{"lat":42.33288010102865,"lng":-71.04418947858738}},{"name":"Boston Green Academy","building":"South Boston Ed. Bldg","location":{"lat":42.33288010102865,"lng":-71.04418947858738}},{"name":"Tynan Elementary","building":"Tynan Bldg","location":{"lat":42.33478931626169,"lng":-71.03843569897761}},{"name":"Perry K-8","building":"Perry Bldg","location":{"lat":42.33233334449332,"lng":-71.03030006532613}},{"name":"Middle School Academy","building":"Gavin Bldg","location":{"lat":42.33338761510174,"lng":-71.05025030572995}},{"name":"UP Academy","building":"Gavin Bldg","location":{"lat":42.33338761510174,"lng":-71.05025030572995}},{"name":"Condon Elementary","building":"Condon Bldg","location":{"lat":42.33779939252895,"lng":-71.05207653278433}}]},{"name":"Company","size":242,"children":[]},{"name":"Food","size":56,"children":[{"name":"A K's Take Out","city":"South Boston","location":{"lat":42.339955,"lng":-71.049226}},{"name":"ALFREDO'S ITALIAN KITCHEN","city":"South Boston","location":{"lat":42.332855,"lng":-71.051318}},{"name":"AL'S PIZZA AND GRILL","city":"South Boston","location":{"lat":42.337287,"lng":-71.04805}},{"name":"AMSTERDAM CAFE","city":"South Boston","location":{"lat":42.335274,"lng":-71.04559}},{"name":"ANDREW SQUARE HOUSE OF PIZZA","city":"South Boston","location":{"lat":42.33003,"lng":-71.05655}},{"name":"Au Bon Pain Outdoor Cafe","city":"South Boston","location":{"lat":42.355105,"lng":-71.049245}},{"name":"BAILEY'S COFFEE SHOP","city":"SOUTH BOSTON","location":{"lat":42.3594,"lng":-71.0587}},{"name":"Burger King","city":"South Boston","location":{"lat":42.339219,"lng":-71.050958}},{"name":"CAFE ARPEGGIO","city":"South Boston","location":{"lat":42.33737,"lng":-71.04816}},{"name":"Cafe Mamtaz","city":"SOUTH BOSTON","location":{"lat":42.3594,"lng":-71.0587}},{"name":"Cirque Du Soleil - Spectrum Catering","city":"South Boston/","location":{"lat":42.3594,"lng":-71.0587}},{"name":"COFFEE SHOP","city":"South Boston","location":{"lat":42.339353,"lng":-71.036129}},{"name":"D'ANGELO'S","city":"SOUTH BOSTON","location":{"lat":42.3594,"lng":-71.0587}},{"name":"DELI OF COURSE","city":"Boston","location":{"lat":42.345194,"lng":-71.041978}},{"name":"Designer Cafe'(Au Bon Pain)","city":"BOSTON","location":{"lat":42.3594,"lng":-71.0587}},{"name":"Domino's Pizza(163 Old Colony Ave.)","city":"South Boston","location":{"lat":42.33403,"lng":-71.05504}},{"name":"Doughboy Donuts & Deli","city":"South Boston","location":{"lat":42.34012,"lng":-71.05676}},{"name":"Dunkin Donuts","city":"South Boston","location":{"lat":42.3594,"lng":-71.0587}},{"name":"Dunkin Donuts","city":"South Boston","location":{"lat":42.32975,"lng":-71.05739}},{"name":"Dunkin' Donuts","city":"South Boston","location":{"lat":42.335603,"lng":-71.045528}},{"name":"Dunkin Donuts (48 W Broadway)","city":"South Boston","location":{"lat":42.342384,"lng":-71.055735}},{"name":"Dunkin Donuts at Old Colony","city":"SOUTH BOSTON","location":{"lat":42.3594,"lng":-71.0587}},{"name":"ETHEL & ANDY'S SUB SHOP","city":"South Boston","location":{"lat":42.338232,"lng":-71.037339}},{"name":"K O Catering and Pies","city":"South Boston","location":{"lat":42.342447,"lng":-71.054567}},{"name":"L STREET DINER","city":"South Boston","location":{"lat":42.334052,"lng":-71.035091}},{"name":"Land of Pizza","city":"SOUTH BOSTON","location":{"lat":42.3594,"lng":-71.0587}},{"name":"Lee Chen's","city":"South Boston","location":{"lat":42.3594,"lng":-71.0587}},{"name":"Liberty Bell","city":"SOUTH BOSTON","location":{"lat":42.3594,"lng":-71.0587}},{"name":"Mangia Neapolitan Pizza","city":"South Boston","location":{"lat":42.33032,"lng":-71.05288}},{"name":"MARCO POLO","city":"Boston","location":{"lat":42.35043,"lng":-71.05007}},{"name":"MCGOO'S","city":"SOUTH BOSTON","location":{"lat":42.3594,"lng":-71.0587}},{"name":"Mirisola's","city":"SOUTH BOSTON","location":{"lat":42.3594,"lng":-71.0587}},{"name":"NANNING WOK","city":"South Boston","location":{"lat":42.335689,"lng":-71.046301}},{"name":"NEW HO TOY","city":"SOUTH BOSTON","location":{"lat":42.3594,"lng":-71.0587}},{"name":"Nick's Pizza & Seafood","city":"South Boston","location":{"lat":42.335661,"lng":-71.04626}},{"name":"Nourish Your Soul","city":"Boston","location":{"lat":42.345668,"lng":-71.05112}},{"name":"Olympic House of Pizza","city":"South Boston","location":{"lat":42.3594,"lng":-71.0587}},{"name":"PERKIN'S SQ DELI","city":"South Boston","location":{"lat":42.3352,"lng":-71.04583}},{"name":"PIZZA PIE-ER","city":"South Boston","location":{"lat":42.335078,"lng":-71.055021}},{"name":"Pizzeria 260","city":"South Boston/","location":{"lat":42.3594,"lng":-71.0587}},{"name":"Red Line Pizza and Grill","city":"South Boston","location":{"lat":42.329935,"lng":-71.056761}},{"name":"Rondo's Sub Shop","city":"South Boston","location":{"lat":42.34107,"lng":-71.054}},{"name":"Seaside Cafe","city":"South Boston","location":{"lat":42.337642,"lng":-71.015671}},{"name":"Sebastians (Seaport Blvd.)","city":"South Boston/","location":{"lat":42.3594,"lng":-71.0587}},{"name":"SIDEWALK CAFE","city":"South Boston","location":{"lat":42.334979,"lng":-71.033538}},{"name":"SOUTH BOSTON CHINESE","city":"SOUTH BOSTON","location":{"lat":42.3594,"lng":-71.0587}},{"name":"South Ocean Chinese Restaurant","city":"South Boston","location":{"lat":42.335786,"lng":-71.036369}},{"name":"SOUTH OCEAN RESTAURANT","city":"South Boston","location":{"lat":42.335786,"lng":-71.036369}},{"name":"Starbucks Coffee Company","city":"South Boston","location":{"lat":42.34248,"lng":-71.05686}},{"name":"Subway (11 W. Broadway)","city":"South Boston","location":{"lat":42.34248,"lng":-71.05686}},{"name":"Sullivan's","city":"SOUTH BOSTON","location":{"lat":42.3594,"lng":-71.0587}},{"name":"Supreme House of Pizza","city":"South Boston","location":{"lat":42.32954,"lng":-71.052909}},{"name":"Tasty Burger.","city":"South Boston","location":{"lat":42.335236,"lng":-71.035552}},{"name":"Teriyaki House","city":"South Boston","location":{"lat":42.342726,"lng":-71.056371}},{"name":"Top Secret Sandwiches","city":"South Boston","location":{"lat":42.3594,"lng":-71.0587}},{"name":"Yo Berry","city":"South Boston","location":{"lat":42.33487,"lng":-71.04646}}]}]},{"name":"02128","location":{"lat":42.3695431,"lng":-71.0200613},"children":[{"name":"School","size":10,"children":[{"name":"Guild Elementary","building":"Guild Bldg","location":{"lat":42.38858425214491,"lng":-71.00402212328991}},{"name":"Kennedy Patrick Elem","building":"Kennedy  P Bldg","location":{"lat":42.37857814268395,"lng":-71.03097975409406}},{"name":"Otis Elementary","building":"Otis Bldg","location":{"lat":42.37500434488106,"lng":-71.03412606507948}},{"name":"O'Donnell Elementary","building":"Odonnell Bldg","location":{"lat":42.37820108219664,"lng":-71.03816152052767}},{"name":"East Boston High","building":"East Boston High Bldg","location":{"lat":42.38061560446334,"lng":-71.03415354807602}},{"name":"Umana/ Alighieri K-8","building":"Umana / Barnes Bldg","location":{"lat":42.3784481460674,"lng":-71.0400750003554}},{"name":"East Boston EEC","building":"East Boston Eec Bldg","location":{"lat":42.36984203380487,"lng":-71.03422832023752}},{"name":"McKay K-8","building":"Mckay Bldg","location":{"lat":42.36880873159441,"lng":-71.03425986004385}},{"name":"Adams Elementary","building":"Adams Bldg","location":{"lat":42.365693168678405,"lng":-71.03483332668918}},{"name":"Bradley Elementary","building":"Bradley Bldg","location":{"lat":42.3911310572244,"lng":-71.00418092543177}}]},{"name":"Company","size":506,"children":[]},{"name":"Food","size":120,"children":[{"name":"Americano Espresso Bar","city":"East Boston","location":{"lat":42.373853,"lng":-71.038885}},{"name":"Angela's Cafe","city":"East Boston","location":{"lat":42.37853,"lng":-71.035}},{"name":"Asian Too Express","city":"EAST BOSTON","location":{"lat":42.3594,"lng":-71.0587}},{"name":"Au Bon Pain (Food Court U S Air)","city":"EAST BOSTON","location":{"lat":42.3594,"lng":-71.0587}},{"name":"Au Bon Pain (Space 31)","city":"EAST BOSTON","location":{"lat":42.3594,"lng":-71.0587}},{"name":"Au Bon Pain (Space 49)","city":"EAST BOSTON","location":{"lat":42.3594,"lng":-71.0587}},{"name":"Au Bon Pain (Space 58)","city":"EAST BOSTON","location":{"lat":42.3594,"lng":-71.0587}},{"name":"Au Bon Pain (US Airways)","city":"EAST BOSTON","location":{"lat":42.3594,"lng":-71.0587}},{"name":"Auntie Anne's (Trmnl B  Gate A 18)","city":"East Boston","location":{"lat":42.3594,"lng":-71.0587}},{"name":"Bohemio's Restaurant","city":"East Boston","location":{"lat":42.37539,"lng":-71.038018}},{"name":"Bonfire By Todd English","city":"EAST BOSTON","location":{"lat":42.3594,"lng":-71.0587}},{"name":"Burger King","city":"East Boston","location":{"lat":42.37165,"lng":-71.042779}},{"name":"Burger King","city":"East Boston","location":{"lat":42.3594,"lng":-71.0587}},{"name":"Burger King","city":"East Boston","location":{"lat":42.386166,"lng":-71.00953}},{"name":"Burger King # 16370","city":"East Boston/","location":{"lat":42.3594,"lng":-71.0587}},{"name":"Burrito Elito (Trmnl E)","city":"East Boston","location":{"lat":42.3594,"lng":-71.0587}},{"name":"Cactus Grill","city":"East Boston","location":{"lat":42.37014,"lng":-71.03916}},{"name":"Cafe Orient Heights","city":"East Boston","location":{"lat":42.38687,"lng":-71.00687}},{"name":"CANTON EATERY","city":"East Boston","location":{"lat":42.3594,"lng":-71.0587}},{"name":"CHINESE DRAGON","city":"East Boston","location":{"lat":42.379336,"lng":-71.02807}},{"name":"Cosi (Pier B) Air Canada","city":"EAST BOSTON","location":{"lat":42.3594,"lng":-71.0587}},{"name":"Cosi (TRMNL E Logan Airport)","city":"East Boston","location":{"lat":42.3594,"lng":-71.0587}},{"name":"Cosi American","city":"East Boston","location":{"lat":42.3594,"lng":-71.0587}},{"name":"Currito Burrito","city":"EAST BOSTON","location":{"lat":42.3594,"lng":-71.0587}},{"name":"DACOOPA SUB & PIZZA","city":"East Boston","location":{"lat":42.38014,"lng":-71.02729}},{"name":"DEM & TED INC.  PIZZA SHUTTLE","city":"East Boston","location":{"lat":42.375806,"lng":-71.038929}},{"name":"Domino's Pizza","city":"East Boston","location":{"lat":42.3846,"lng":-71.00029}},{"name":"DONNA'S RESTAURANT","city":"East Boston","location":{"lat":42.387008,"lng":-71.007351}},{"name":"Dough East Boston","city":"East Boston","location":{"lat":42.371665,"lng":-71.042087}},{"name":"Dunkin Donuts","city":"East Boston","location":{"lat":42.36914,"lng":-71.029816}},{"name":"Dunkin Donuts","city":"EAST BOSTON","location":{"lat":42.3594,"lng":-71.0587}},{"name":"Dunkin Donuts # 1 (#52)","city":"EAST BOSTON","location":{"lat":42.3594,"lng":-71.0587}},{"name":"Dunkin Donuts (T-E Post Security)","city":"East Boston","location":{"lat":42.3594,"lng":-71.0587}},{"name":"Dunkin Donuts (TRMNL-C Baggage Area)","city":"East Boston/","location":{"lat":42.3594,"lng":-71.0587}},{"name":"Dunkin Donuts Space #57","city":"EAST BOSTON","location":{"lat":42.3594,"lng":-71.0587}},{"name":"Dunkin Donuts Space #86","city":"EAST BOSTON","location":{"lat":42.3594,"lng":-71.0587}},{"name":"DUNKIN DONUTS(ARRIVAL)","city":"EAST BOSTON","location":{"lat":42.3594,"lng":-71.0587}},{"name":"DUNKIN DONUTS(DEPARTURE)","city":"EAST BOSTON","location":{"lat":42.3594,"lng":-71.0587}},{"name":"DUNKIN' DONUTS(RMG DONUTS LLC)","city":"East Boston","location":{"lat":42.368982,"lng":-71.039212}},{"name":"DUNKIN' DONUTS(RMG DONUTS LLC)","city":"East Boston","location":{"lat":42.38589,"lng":-71.00835}},{"name":"DUNKIN DONUTS(SATELLITE)","city":"EAST BOSTON","location":{"lat":42.3594,"lng":-71.0587}},{"name":"Dunkin Donuts/Airside","city":"EAST BOSTON","location":{"lat":42.3594,"lng":-71.0587}},{"name":"DUNKIN DONUTS/WALDWIN GROUP","city":"EAST BOSTON","location":{"lat":42.3594,"lng":-71.0587}},{"name":"Dunkin Donuts-Amer Airlines/Landside","city":"EAST BOSTON","location":{"lat":42.3594,"lng":-71.0587}},{"name":"DUNKIN DONUTS-U S AIR","city":"EAST BOSTON","location":{"lat":42.3594,"lng":-71.0587}},{"name":"E.B. Crown Fried Chicken & Pizza","city":"East Boston","location":{"lat":42.37017,"lng":-71.03868}},{"name":"Earl of Sandwich","city":"East Boston","location":{"lat":42.3594,"lng":-71.0587}},{"name":"East Boston Pop Warner","city":"East Boston","location":{"lat":42.3594,"lng":-71.0587}},{"name":"EL CHALAN","city":"East Boston","location":{"lat":42.379767,"lng":-71.027}},{"name":"El Rinconcito","city":"East  Boston","location":{"lat":42.3594,"lng":-71.0587}},{"name":"ELITE DONUT SHOP","city":"East Boston","location":{"lat":42.379626,"lng":-71.026928}},{"name":"Espessomente","city":"EAST BOSTON","location":{"lat":42.3594,"lng":-71.0587}},{"name":"Fox Sports Sky Box Us Air","city":"EAST BOSTON","location":{"lat":42.3594,"lng":-71.0587}},{"name":"Fresh City","city":"East Boston","location":{"lat":42.364539,"lng":-71.021817}},{"name":"Frio Rico","city":"East Boston","location":{"lat":42.37985,"lng":-71.02658}},{"name":"Fuddruckers (Space 7)","city":"EAST BOSTON","location":{"lat":42.3594,"lng":-71.0587}},{"name":"GAME-ON","city":"EAST BOSTON","location":{"lat":42.3594,"lng":-71.0587}},{"name":"Gourmet On The Fly","city":"EAST BOSTON","location":{"lat":42.3594,"lng":-71.0587}},{"name":"Great Chef","city":"East Boston","location":{"lat":42.379493,"lng":-71.02791}},{"name":"Green Express","city":"East Boston/","location":{"lat":42.3594,"lng":-71.0587}},{"name":"Harpoon Tap Room","city":"EAST BOSTON","location":{"lat":42.3594,"lng":-71.0587}},{"name":"Honey Dew Donuts","city":"East Boston","location":{"lat":42.369388,"lng":-71.03982}},{"name":"Honey Dew Donuts","city":"East Boston","location":{"lat":42.3594,"lng":-71.0587}},{"name":"HOST-JOHN ROCKETS-GATE 28","city":"East Boston/","location":{"lat":42.3594,"lng":-71.0587}},{"name":"HOST-STARBUCKS (GATE B31)","city":"EAST BOSTON","location":{"lat":42.3594,"lng":-71.0587}},{"name":"HOST-STARBUCKS-GATE C28 Trmnl C","city":"East Boston/","location":{"lat":42.3594,"lng":-71.0587}},{"name":"Host-Wolfgang Pucks-Gate 28","city":"EAST BOSTON","location":{"lat":42.3594,"lng":-71.0587}},{"name":"KELLEY'S SQ. PUB","city":"East Boston","location":{"lat":42.376231,"lng":-71.035629}},{"name":"La Abundansia","city":"East Boston","location":{"lat":42.371739,"lng":-71.038772}},{"name":"LA CHIVA RESTAURANT","city":"East Boston","location":{"lat":42.37825,"lng":-71.02954}},{"name":"La Esquinita Restaurant","city":"East Boston","location":{"lat":42.3657,"lng":-71.02905}},{"name":"LA REINA","city":"East Boston","location":{"lat":42.37608,"lng":-71.0361}},{"name":"LA SULTANA BAKERY","city":"EAST BOSTON","location":{"lat":42.3594,"lng":-71.0587}},{"name":"Latinos Restaurant","city":"East Boston","location":{"lat":42.37218,"lng":-71.0364}},{"name":"Lean & Green Gourmet","city":"EAST BOSTON","location":{"lat":42.3594,"lng":-71.0587}},{"name":"LEGAL SEA FOOD","city":"EAST BOSTON","location":{"lat":42.3594,"lng":-71.0587}},{"name":"Los Pinos Restaurante Mexican Grill","city":"BOSTON","location":{"lat":42.3594,"lng":-71.0587}},{"name":"LUCKY'S LOUNGE","city":"EAST BOSTON","location":{"lat":42.3594,"lng":-71.0587}},{"name":"Market Cafe","city":"East Boston","location":{"lat":42.3594,"lng":-71.0587}},{"name":"Mcdonalds","city":"EAST BOSTON","location":{"lat":42.3594,"lng":-71.0587}},{"name":"McDonald's","city":"East Boston","location":{"lat":42.37445,"lng":-71.04028}},{"name":"MCDONALDS RESTAURANT","city":"EAST BOSTON","location":{"lat":42.3594,"lng":-71.0587}},{"name":"Mikes Vending L L C @ Constitution Beach","city":"East Boston","location":{"lat":42.38588,"lng":-71.00682}},{"name":"Off the Boat","city":"East Boston","location":{"lat":42.37461,"lng":-71.03786}},{"name":"Panda Express Space 29A","city":"EAST BOSTON","location":{"lat":42.3594,"lng":-71.0587}},{"name":"Philips Seafood Express","city":"EAST BOSTON","location":{"lat":42.3594,"lng":-71.0587}},{"name":"Pinkberry (TRMNL C Pier B Side)","city":"East Boston/","location":{"lat":42.3594,"lng":-71.0587}},{"name":"Pollos A La Brasa Beto's","city":"East Boston","location":{"lat":42.375683,"lng":-71.036459}},{"name":"Potbelly Sandwich Shop","city":"East Boston/","location":{"lat":42.3594,"lng":-71.0587}},{"name":"PUNTO ROJO","city":"East Boston","location":{"lat":42.37529,"lng":-71.0383}},{"name":"Que  Padre","city":"East Boston","location":{"lat":42.379379,"lng":-71.027994}},{"name":"RINO'S PLACE","city":"EAST BOSTON","location":{"lat":42.3594,"lng":-71.0587}},{"name":"Rosticeria Cancun","city":"East Boston","location":{"lat":42.37369,"lng":-71.038873}},{"name":"ROYAL ROAST BEEF & SEAFOOD","city":"East Boston","location":{"lat":42.38557,"lng":-71.01084}},{"name":"RYO Asian Fusion","city":"East Boston","location":{"lat":42.3594,"lng":-71.0587}},{"name":"RYO Asian Fusion","city":"EAST BOSTON","location":{"lat":42.3594,"lng":-71.0587}},{"name":"Salamanders Coffee Place","city":"East Boston","location":{"lat":42.369908,"lng":-71.037913}},{"name":"Samuel Adams Toasts Boston(Gates B4-21)","city":"EAST BOSTON","location":{"lat":42.3594,"lng":-71.0587}},